"name","lon","lat"
"HDB Block 1, BEACH RD",103.8644858,1.3043111
"HDB Block 1, BEDOK STH AVE 1",103.9333467,1.3213137
"HDB Block 1, CANTONMENT RD",103.8412344,1.2757638
"HDB Block 1, CHAI CHEE RD",103.9227585,1.3241556
"HDB Block 1, CHANGI VILLAGE RD",103.9350271,1.3241585
"HDB Block 1, DELTA AVE",103.8284741,1.2921124
"HDB Block 1, DOVER RD",103.782884,1.303137
"HDB Block 1, EUNOS CRES",103.9024811,1.3207892
"HDB Block 1, EVERTON PK",103.8400617,1.2775002
"HDB Block 1, GEYLANG SERAI",103.897547,1.3173789
"HDB Block 1, GHIM MOH RD",103.787272,1.3129794
"HDB Block 1, HAIG RD",103.8975402,1.3111376
"HDB Block 1, HOLLAND CL",103.7958743,1.3080563
"HDB Block 1, HOUGANG AVE 3",103.8929442,1.3641651
"HDB Block 1, JLN BT MERAH",103.8080991,1.2865786
"HDB Block 1, JLN KUKOH",103.839817,1.288274
"HDB Block 1, JOO CHIAT RD",103.8985137,1.3152297
"HDB Block 1, KG KAYU RD",103.8843664,1.3032219
"HDB Block 1, LOR 7 TOA PAYOH",103.853598,1.33944
"HDB Block 1, LOR LEW LIAN",103.875414,1.350909
"HDB Block 1, MARINE TER",103.9186166,1.3049582
"HDB Block 1, MARSILING DR",103.7757457,1.4406289
"HDB Block 1, MAUDE RD",103.8590139,1.3076734
"HDB Block 1, PINE CL",103.8831066,1.3080944
"HDB Block 1, QUEEN'S RD",103.806668,1.31755
"HDB Block 1, ST. GEORGE'S RD",103.8614956,1.323502
"HDB Block 1, TAMPINES WALK",103.9408009,1.3507579
"HDB Block 1, TECK WHYE AVE",103.751626,1.382546
"HDB Block 1, TELOK BLANGAH CRES",103.8194526,1.2771949
"HDB Block 1, TG PAGAR PLAZA",103.8425444,1.2756173
"HDB Block 1, THOMSON RD",103.787272,1.3129794
"HDB Block 1, TOH YI DR",103.7746389,1.339559
"HDB Block 1, UPP ALJUNIED LANE",103.8797696,1.3340626
"HDB Block 1, WOODLANDS IND PK E3",103.7921584,1.4455524
"HDB Block 1A, C'WEALTH DR",103.7971121,1.3018312
"HDB Block 1A, CANTONMENT RD",103.8412344,1.2757638
"HDB Block 1A, EUNOS CRES",103.9024811,1.3207892
"HDB Block 1A, EVERTON PK",103.8386827,1.2772704
"HDB Block 1A, TELOK BLANGAH CRES",103.817785,1.279599
"HDB Block 1A, TELOK PAKU RD",103.806668,1.31755
"HDB Block 1A, THOMSON RD",103.787272,1.3129794
"HDB Block 1A, TOH YI DR",103.775206,1.339168
"HDB Block 1B, CANTONMENT RD",103.8412344,1.2757638
"HDB Block 1C, CANTONMENT RD",103.8414964,1.2774176
"HDB Block 1D, CANTONMENT RD",103.8412344,1.2757638
"HDB Block 1E, CANTONMENT RD",103.8412344,1.2757638
"HDB Block 1F, CANTONMENT RD",103.8412344,1.2757638
"HDB Block 1G, CANTONMENT RD",103.8412344,1.2757638
"HDB Block 10, BENDEMEER RD",103.8661565,1.3229808
"HDB Block 10, CANTONMENT CL",103.8392779,1.2746539
"HDB Block 10, CHAI CHEE RD",103.9227585,1.3241556
"HDB Block 10, DAKOTA CRES",103.88494,1.306636
"HDB Block 10, EUNOS CRES",103.9026794,1.322314
"HDB Block 10, GLOUCESTER RD",103.8521876,1.3139435
"HDB Block 10, HAIG RD",103.8957046,1.3147464
"HDB Block 10, HOLLAND AVE",103.794362,1.307555
"HDB Block 10, JLN BATU",103.8829308,1.3021038
"HDB Block 10, JLN KUKOH",103.8390893,1.2869806
"HDB Block 10, JLN BT HO SWEE",103.8284429,1.287502
"HDB Block 10, JLN RUMAH TINGGI",103.808383,1.2882309
"HDB Block 10, JOO SENG RD",103.8802043,1.3346768
"HDB Block 10, LOR 7 TOA PAYOH",103.8572084,1.3371502
"HDB Block 10, MARSILING DR",103.7772082,1.4408157
"HDB Block 10, NTH BRIDGE RD",103.8637379,1.3053702
"HDB Block 10, PINE CL",103.882277,1.3091671
"HDB Block 10, SELEGIE RD",103.8634295,1.323761
"HDB Block 10, ST. GEORGE'S RD",103.8634295,1.323761
"HDB Block 10, TECK WHYE AVE",103.751866,1.381995
"HDB Block 10, TELOK BLANGAH CRES",103.8197409,1.277725
"HDB Block 10, TOH YI DR",103.773302,1.337764
"HDB Block 10, WOODLANDS AVE 8",103.8004605,1.4543934
"HDB Block 10A, BEDOK STH AVE 2",103.9369689,1.32312
"HDB Block 10A, BENDEMEER RD",103.8603679,1.3152039
"HDB Block 10A, BOON TIONG RD",103.8289617,1.2869311
"HDB Block 10A, CHAI CHEE RD",103.9227585,1.3241556
"HDB Block 10A, HOLLAND DR",103.792731,1.308133
"HDB Block 10A, JLN KUKOH",103.8390893,1.2869806
"HDB Block 10A, LOR 7 TOA PAYOH",103.8577751,1.3371861
"HDB Block 10B, BENDEMEER RD",103.8661565,1.3229808
"HDB Block 10B, BEDOK STH AVE 2",103.9369689,1.32312
"HDB Block 10B, BOON TIONG RD",103.8289617,1.2869311
"HDB Block 10B, LOR 7 TOA PAYOH",103.858184,1.3371869
"HDB Block 10C, BENDEMEER RD",103.8661565,1.3229808
"HDB Block 10C, BEDOK STH AVE 2",103.9369689,1.32312
"HDB Block 10C, LOR 7 TOA PAYOH",103.857088,1.3349217
"HDB Block 10D, BEDOK STH AVE 2",103.9369689,1.32312
"HDB Block 10E, BEDOK STH AVE 2",103.9370641,1.3216015
"HDB Block 10F, BEDOK STH AVE 2",103.9369689,1.32312
"HDB Block 100, ALJUNIED CRES",103.883992,1.3209439
"HDB Block 100, BEDOK NTH AVE 4",103.9389578,1.3343196
"HDB Block 100, C'WEALTH CRES",103.8011292,1.3077664
"HDB Block 100, LOR 1 TOA PAYOH",103.8484873,1.3395808
"HDB Block 100, WHAMPOA DR",103.854244,1.320748
"HDB Block 101, AH HOOD RD",103.844521,1.327505
"HDB Block 101, ALJUNIED CRES",103.883273,1.320902
"HDB Block 101, ANG MO KIO AVE 3",103.839264,1.370292
"HDB Block 101, BEDOK RESERVOIR RD",103.913689,1.331335
"HDB Block 101, BEDOK NTH AVE 4",103.9378742,1.3345093
"HDB Block 101, BIDADARI PK DR",103.8701234,1.3335236
"HDB Block 101, BISHAN ST 12",103.848597,1.3466071
"HDB Block 101, BT BATOK WEST AVE 6",103.746739,1.346543
"HDB Block 101, BT PURMEI RD",103.8260437,1.2717636
"HDB Block 101, C'WEALTH CRES",103.8007739,1.3081338
"HDB Block 101, CANBERRA ST",103.8301272,1.4516644
"HDB Block 101, CLEMENTI ST 14",103.768905,1.322234
"HDB Block 101, GANGSA RD",103.7668465,1.3795722
"HDB Block 101, HENDERSON CRES",103.8213295,1.2907671
"HDB Block 101, HOUGANG AVE 1",103.8914727,1.3551718
"HDB Block 101, JLN RAJAH",103.8507467,1.3288098
"HDB Block 101, JURONG EAST ST 13",103.7385,1.336717
"HDB Block 101, LENGKONG TIGA",103.910841,1.325131
"HDB Block 101, PASIR RIS ST 12",103.958084,1.367035
"HDB Block 101, POTONG PASIR AVE 1",103.868354,1.3332
"HDB Block 101, PUNGGOL FIELD",103.906593,1.3981809
"HDB Block 101, RIVERVALE WALK",103.899465,1.382678
"HDB Block 101, SERANGOON NTH AVE 1",103.8697639,1.3710753
"HDB Block 101, SIMEI ST 1",103.9515397,1.3409405
"HDB Block 101, SPOTTISWOODE PK RD",103.8353421,1.2746144
"HDB Block 101, TAMPINES ST 11",103.9452868,1.347433
"HDB Block 101, TECK WHYE LANE",103.75423,1.377895
"HDB Block 101, TOWNER RD",103.8608789,1.3192431
"HDB Block 101, WHAMPOA DR",103.855723,1.322041
"HDB Block 101, WOODLANDS ST 13",103.781918,1.4359346
"HDB Block 101, YISHUN AVE 5",103.8280735,1.4297686
"HDB Block 101A, BIDADARI PK DR",103.8733111,1.3398381
"HDB Block 101A, CANBERRA ST",103.8301272,1.4516644
"HDB Block 101A, LOR 2 TOA PAYOH",103.8471133,1.3397164
"HDB Block 101A, PUNGGOL FIELD",103.9059818,1.3980077
"HDB Block 101A, YISHUN AVE 5",103.8334236,1.4302129
"HDB Block 101B, CANBERRA ST",103.8301272,1.4516644
"HDB Block 101B, LOR 2 TOA PAYOH",103.8476442,1.3393865
"HDB Block 101B, PUNGGOL FIELD",103.906593,1.3981809
"HDB Block 101B, YISHUN AVE 5",103.8334236,1.4302129
"HDB Block 101C, LOR 2 TOA PAYOH",103.8471133,1.3397164
"HDB Block 101C, PUNGGOL FIELD",103.906593,1.3981809
"HDB Block 101C, YISHUN AVE 5",103.8334236,1.4302129
"HDB Block 101D, PUNGGOL FIELD",103.9061667,1.3985575
"HDB Block 102, ALJUNIED CRES",103.885756,1.321334
"HDB Block 102, ANG MO KIO AVE 3",103.839309,1.370583
"HDB Block 102, BEDOK NTH AVE 4",103.9372311,1.3338974
"HDB Block 102, BEDOK RESERVOIR RD",103.9372311,1.3338974
"HDB Block 102, BISHAN ST 12",103.8479778,1.345254
"HDB Block 102, BT PURMEI RD",103.8267427,1.2720311
"HDB Block 102, BT BATOK WEST AVE 6",103.7473,1.347288
"HDB Block 102, C'WEALTH CRES",103.8006613,1.3078718
"HDB Block 102, CANBERRA ST",103.8322794,1.4509534
"HDB Block 102, CLEMENTI ST 14",103.7692095,1.3222954
"HDB Block 102, DEPOT RD",103.8092881,1.2810873
"HDB Block 102, GANGSA RD",103.7679909,1.3791384
"HDB Block 102, HENDERSON CRES",103.8217393,1.2904366
"HDB Block 102, HOUGANG AVE 1",103.890786,1.3549655
"HDB Block 102, JLN RAJAH",103.8507467,1.3288098
"HDB Block 102, JLN DUSUN",103.8443489,1.327942
"HDB Block 102, JURONG EAST ST 13",103.7387031,1.3362469
"HDB Block 102, LENGKONG TIGA",103.9107031,1.3254317
"HDB Block 102, PASIR RIS ST 12",103.958001,1.367508
"HDB Block 102, POTONG PASIR AVE 1",103.8689441,1.3336553
"HDB Block 102, PUNGGOL FIELD",103.905831,1.3986829
"HDB Block 102, RIVERVALE WALK",103.9009109,1.381822
"HDB Block 102, SERANGOON NTH AVE 1",103.870949,1.370838
"HDB Block 102, SIMEI ST 1",103.9515919,1.3415007
"HDB Block 102, SPOTTISWOODE PK RD",103.8348095,1.2736582
"HDB Block 102, TAMPINES ST 11",103.9457629,1.3467994
"HDB Block 102, TECK WHYE LANE",103.754325,1.377069
"HDB Block 102, TOWNER RD",103.8622,1.3208259
"HDB Block 102, WOODLANDS ST 13",103.781142,1.436088
"HDB Block 102, YISHUN AVE 5",103.828571,1.430627
"HDB Block 102A, BIDADARI PK DR",103.8718078,1.3370236
"HDB Block 102A, CANBERRA ST",103.8322794,1.4509534
"HDB Block 102A, DEPOT RD",103.8092881,1.2810873
"HDB Block 102A, PUNGGOL FIELD",103.9077744,1.3982741
"HDB Block 102A, RIVERVALE WALK",103.9013428,1.3829166
"HDB Block 102B, BIDADARI PK DR",103.8716869,1.3361788
"HDB Block 102B, CANBERRA ST",103.8322712,1.4516395
"HDB Block 102B, PUNGGOL FIELD",103.905341,1.399207
"HDB Block 102C, CANBERRA ST",103.8322712,1.4516395
"HDB Block 102C, PUNGGOL FIELD",103.905014,1.3988179
"HDB Block 102D, PUNGGOL FIELD",103.9053397,1.3983645
"HDB Block 103, AH HOOD RD",103.844781,1.327956
"HDB Block 103, ALJUNIED CRES",103.883268,1.320541
"HDB Block 103, ANG MO KIO AVE 3",103.839156,1.371001
"HDB Block 103, BEDOK NTH AVE 4",103.9372896,1.3334736
"HDB Block 103, BEDOK RESERVOIR RD",103.9092627,1.3287793
"HDB Block 103, BISHAN ST 12",103.848334,1.345527
"HDB Block 103, BT BATOK CTRL",103.7498534,1.3499669
"HDB Block 103, BT PURMEI RD",103.825411,1.27206
"HDB Block 103, C'WEALTH CRES",103.890382,1.355363
"HDB Block 103, CANBERRA ST",103.8304504,1.451342
"HDB Block 103, CLEMENTI ST 14",103.76883,1.322679
"HDB Block 103, EDGEFIELD PLAINS",103.9048274,1.3974812
"HDB Block 103, GANGSA RD",103.768434,1.378629
"HDB Block 103, HENDERSON CRES",103.8213035,1.2900929
"HDB Block 103, HOUGANG AVE 1",103.890382,1.355363
"HDB Block 103, JLN RAJAH",103.852831,1.327517
"HDB Block 103, JURONG EAST ST 13",103.737967,1.336694
"HDB Block 103, LENGKONG TIGA",103.910504,1.325855
"HDB Block 103, LOR 1 TOA PAYOH",103.845095,1.33317
"HDB Block 103, PASIR RIS ST 12",103.958595,1.367748
"HDB Block 103, POTONG PASIR AVE 1",103.8694996,1.3341184
"HDB Block 103, RIVERVALE WALK",103.9013428,1.3829166
"HDB Block 103, SERANGOON NTH AVE 1",103.8696822,1.3708415
"HDB Block 103, SPOTTISWOODE PK RD",103.8353421,1.2746144
"HDB Block 103, TAMPINES ST 11",103.9457629,1.3467994
"HDB Block 103, TECK WHYE LANE",103.753659,1.377103
"HDB Block 103, TOWNER RD",103.8614803,1.3203338
"HDB Block 103, WOODLANDS ST 13",103.781458,1.4369
"HDB Block 103, YISHUN RING RD",103.8290229,1.4318134
"HDB Block 103A, CANBERRA ST",103.8304504,1.451342
"HDB Block 103A, DEPOT RD",103.8133888,1.2807899
"HDB Block 103A, EDGEFIELD PLAINS",103.9058262,1.3971031
"HDB Block 103A, RIVERVALE WALK",103.9013428,1.3829166
"HDB Block 103B, CANBERRA ST",103.8296255,1.4459975
"HDB Block 103B, DEPOT RD",103.812971,1.280851
"HDB Block 103B, EDGEFIELD PLAINS",103.9047474,1.3978525
"HDB Block 103C, EDGEFIELD PLAINS",103.9045815,1.3975622
"HDB Block 104, ALJUNIED CRES",103.882735,1.319488
"HDB Block 104, BEDOK NTH AVE 4",103.9365632,1.3333557
"HDB Block 104, BEDOK RESERVOIR RD",103.9365632,1.3333557
"HDB Block 104, BISHAN ST 12",103.848592,1.3472519
"HDB Block 104, BT PURMEI RD",103.8255677,1.2725659
"HDB Block 104, BT BATOK CTRL",103.747297,1.348936
"HDB Block 104, C'WEALTH CRES",103.8006613,1.3078718
"HDB Block 104, CANBERRA ST",103.8329686,1.4499034
"HDB Block 104, CLEMENTI ST 14",103.769077,1.323031
"HDB Block 104, GANGSA RD",103.767855,1.378851
"HDB Block 104, HENDERSON CRES",103.821315,1.289414
"HDB Block 104, HOUGANG AVE 1",103.890382,1.355363
"HDB Block 104, JLN BT MERAH",103.808937,1.286692
"HDB Block 104, JLN RAJAH",103.853185,1.32781
"HDB Block 104, JLN DUSUN",103.8443489,1.327942
"HDB Block 104, JURONG EAST ST 13",103.737616,1.336586
"HDB Block 104, LENGKONG TIGA",103.9099169,1.325854
"HDB Block 104, LOR 1 TOA PAYOH",103.8490908,1.3404826
"HDB Block 104, PASIR RIS ST 12",103.958675,1.367906
"HDB Block 104, POTONG PASIR AVE 1",103.8692235,1.3343451
"HDB Block 104, RIVERVALE WALK",103.900848,1.382713
"HDB Block 104, SERANGOON NTH AVE 1",103.870918,1.370662
"HDB Block 104, SPOTTISWOODE PK RD",103.8349908,1.274538
"HDB Block 104, TAMPINES ST 11",103.946427,1.347294
"HDB Block 104, TECK WHYE LANE",103.752767,1.377131
"HDB Block 104, TOWNER RD",103.860967,1.320017
"HDB Block 104, WHAMPOA DR",103.8540674,1.3216241
"HDB Block 104, WOODLANDS ST 13",103.7820077,1.4364003
"HDB Block 104, YISHUN RING RD",103.827109,1.431508
"HDB Block 104A, ANG MO KIO ST 11",103.841859,1.376759
"HDB Block 104A, CANBERRA ST",103.8329686,1.4499034
"HDB Block 104A, DEPOT RD",103.8120787,1.2805483
"HDB Block 104A, EDGEFIELD PLAINS",103.9051092,1.3968838
"HDB Block 104A, HENDERSON CRES",103.8213035,1.2900929
"HDB Block 104B, ANG MO KIO ST 11",103.84693,1.364785
"HDB Block 104B, CANBERRA ST",103.8329686,1.4499034
"HDB Block 104B, DEPOT RD",103.8120787,1.2805483
"HDB Block 104B, EDGEFIELD PLAINS",103.905416,1.396493
"HDB Block 104C, ANG MO KIO ST 11",103.841859,1.376759
"HDB Block 104C, CANBERRA ST",103.8329686,1.4499034
"HDB Block 104C, DEPOT RD",103.8115719,1.2806298
"HDB Block 104D, CANBERRA ST",103.8329686,1.4499034
"HDB Block 105, ALJUNIED CRES",103.882735,1.319488
"HDB Block 105, ANG MO KIO AVE 4",103.8374037,1.3723534
"HDB Block 105, BEDOK NTH AVE 4",103.9365632,1.3333557
"HDB Block 105, BEDOK RESERVOIR RD",103.9100166,1.3313269
"HDB Block 105, BIDADARI PK DR",103.8701234,1.3335236
"HDB Block 105, BISHAN ST 12",103.847937,1.346401
"HDB Block 105, BT BATOK CTRL",103.752926,1.348786
"HDB Block 105, BT PURMEI RD",103.824831,1.272581
"HDB Block 105, CANBERRA ST",103.8329686,1.4499034
"HDB Block 105, CLEMENTI ST 12",103.770005,1.322642
"HDB Block 105, DEPOT RD",103.8092881,1.2810873
"HDB Block 105, EDGEFIELD PLAINS",103.9058262,1.3971031
"HDB Block 105, GANGSA RD",103.767731,1.3783049
"HDB Block 105, HENDERSON CRES",103.8222886,1.2902758
"HDB Block 105, HOUGANG AVE 1",103.8900223,1.3540215
"HDB Block 105, JLN BT MERAH",103.806888,1.287075
"HDB Block 105, JLN RAJAH",103.8541235,1.3282756
"HDB Block 105, JURONG EAST ST 13",103.7380249,1.337284
"HDB Block 105, LENGKONG TIGA",103.910086,1.325676
"HDB Block 105, LOR 1 TOA PAYOH",103.848755,1.340432
"HDB Block 105, PASIR RIS ST 12",103.9575685,1.3684382
"HDB Block 105, POTONG PASIR AVE 1",103.8685012,1.3343315
"HDB Block 105, RIVERVALE WALK",103.9007038,1.3821683
"HDB Block 105, SERANGOON NTH AVE 1",103.870049,1.370238
"HDB Block 105, SIMEI ST 1",103.9505489,1.3412586
"HDB Block 105, SPOTTISWOODE PK RD",103.834402,1.2738676
"HDB Block 105, TAMPINES ST 11",103.9457629,1.3467994
"HDB Block 105, TECK WHYE LANE",103.752925,1.377601
"HDB Block 105, TOWNER RD",103.8612564,1.3208161
"HDB Block 105, WOODLANDS ST 13",103.781458,1.4369
"HDB Block 105, YISHUN RING RD",103.827109,1.431508
"HDB Block 105A, BIDADARI PK DR",103.8701234,1.3335236
"HDB Block 105A, DEPOT RD",103.8092881,1.2810873
"HDB Block 105A, EDGEFIELD PLAINS",103.9058262,1.3971031
"HDB Block 105A, JLN BT MERAH",103.8265119,1.278962
"HDB Block 105B, BIDADARI PK DR",103.8701234,1.3335236
"HDB Block 105B, DEPOT RD",103.8068384,1.2818512
"HDB Block 105B, EDGEFIELD PLAINS",103.9060137,1.3972666
"HDB Block 105C, EDGEFIELD PLAINS",103.905595,1.397623
"HDB Block 105D, EDGEFIELD PLAINS",103.905293,1.397401
"HDB Block 106, ALJUNIED CRES",103.8846901,1.3213363
"HDB Block 106, ANG MO KIO AVE 4",103.837256,1.371994
"HDB Block 106, BEDOK NTH AVE 4",103.9408471,1.3328678
"HDB Block 106, BEDOK RESERVOIR RD",103.9095822,1.3294574
"HDB Block 106, BISHAN ST 12",103.8477574,1.3461032
"HDB Block 106, BIDADARI PK DR",103.8733111,1.3398381
"HDB Block 106, BT PURMEI RD",103.8255677,1.2725659
"HDB Block 106, BT BATOK CTRL",103.7540174,1.3483821
"HDB Block 106, C'WEALTH CRES",103.799442,1.3082069
"HDB Block 106, CANBERRA ST",103.8328057,1.4490414
"HDB Block 106, CLEMENTI ST 12",103.7696226,1.3221775
"HDB Block 106, GANGSA RD",103.7674096,1.3779831
"HDB Block 106, HENDERSON CRES",103.822253,1.289476
"HDB Block 106, HOUGANG AVE 1",103.890572,1.353777
"HDB Block 106, JLN DUSUN",103.8443489,1.327942
"HDB Block 106, JLN RAJAH",103.8546332,1.3285936
"HDB Block 106, JLN BT MERAH",103.808937,1.286692
"HDB Block 106, JURONG EAST ST 13",103.737674,1.337226
"HDB Block 106, LENGKONG TIGA",103.909952,1.3251329
"HDB Block 106, LOR 1 TOA PAYOH",103.848442,1.340442
"HDB Block 106, PASIR RIS ST 12",103.9577915,1.3679136
"HDB Block 106, POTONG PASIR AVE 1",103.868122,1.334154
"HDB Block 106, PUNGGOL FIELD",103.9077744,1.3982741
"HDB Block 106, RIVERVALE WALK",103.9003079,1.382547
"HDB Block 106, SERANGOON NTH AVE 1",103.8710665,1.370187
"HDB Block 106, SIMEI ST 1",103.9508781,1.3418363
"HDB Block 106, SPOTTISWOODE PK RD",103.8348095,1.2736582
"HDB Block 106, TAMPINES ST 11",103.947515,1.347602
"HDB Block 106, TECK WHYE LANE",103.7531,1.377976
"HDB Block 106, TOWNER RD",103.861294,1.3212756
"HDB Block 106, WOODLANDS ST 13",103.7822169,1.4367088
"HDB Block 106, YISHUN RING RD",103.827109,1.431508
"HDB Block 106A, BIDADARI PK DR",103.8713494,1.3342576
"HDB Block 106A, CANBERRA ST",103.8326458,1.4482092
"HDB Block 106A, DEPOT RD",103.8110535,1.2806941
"HDB Block 106A, HENDERSON CRES",103.822253,1.289476
"HDB Block 106A, LOR 1 TOA PAYOH",103.848442,1.340442
"HDB Block 106A, PUNGGOL FIELD",103.9077744,1.3982741
"HDB Block 106B, BIDADARI PK DR",103.8701234,1.3335236
"HDB Block 106B, CANBERRA ST",103.8329686,1.4499034
"HDB Block 106B, DEPOT RD",103.8110535,1.2806941
"HDB Block 106B, PUNGGOL FIELD",103.9077744,1.3982741
"HDB Block 106C, PUNGGOL FIELD",103.9077744,1.3982741
"HDB Block 106D, PUNGGOL FIELD",103.9077744,1.3982741
"HDB Block 107, ALJUNIED CRES",103.884242,1.318994
"HDB Block 107, ANG MO KIO AVE 4",103.8371138,1.3714133
"HDB Block 107, BEDOK NTH RD",103.9360656,1.3324072
"HDB Block 107, BEDOK RESERVOIR RD",103.9095142,1.3301981
"HDB Block 107, BISHAN ST 12",103.847937,1.346401
"HDB Block 107, BT BATOK WEST AVE 6",103.746573,1.347818
"HDB Block 107, BT PURMEI RD",103.8255677,1.2725659
"HDB Block 107, C'WEALTH CRES",103.8473045,1.3412736
"HDB Block 107, CANBERRA ST",103.8333993,1.4487621
"HDB Block 107, CLEMENTI ST 12",103.7696226,1.3221775
"HDB Block 107, GANGSA RD",103.766644,1.378122
"HDB Block 107, HOUGANG AVE 1",103.889926,1.352862
"HDB Block 107, JLN BT MERAH",103.8249539,1.2798852
"HDB Block 107, JLN RAJAH",103.8552406,1.3276834
"HDB Block 107, JURONG EAST ST 13",103.737894,1.337694
"HDB Block 107, LENGKONG TIGA",103.9102213,1.3250971
"HDB Block 107, LOR 1 TOA PAYOH",103.845095,1.33317
"HDB Block 107, PASIR RIS ST 12",103.957461,1.367503
"HDB Block 107, POTONG PASIR AVE 1",103.8683218,1.3345643
"HDB Block 107, PUNGGOL FIELD",103.912458,1.393522
"HDB Block 107, RIVERVALE WALK",103.9003069,1.3830761
"HDB Block 107, SERANGOON NTH AVE 1",103.8700693,1.3698911
"HDB Block 107, SIMEI ST 1",103.950473,1.3421176
"HDB Block 107, SPOTTISWOODE PK RD",103.8348095,1.2736582
"HDB Block 107, TAMPINES ST 11",103.9485882,1.3483589
"HDB Block 107, TECK WHYE LANE",103.75423,1.377895
"HDB Block 107, TOWNER RD",103.8597813,1.3193635
"HDB Block 107, WOODLANDS ST 13",103.7822127,1.4373609
"HDB Block 107, YISHUN RING RD",103.827305,1.432263
"HDB Block 107A, CLEMENTI ST 12",103.7700067,1.322126
"HDB Block 107A, CANBERRA ST",103.8329686,1.4499034
"HDB Block 107A, C'WEALTH CRES",103.8014077,1.3061852
"HDB Block 107A, EDGEFIELD PLAINS",103.9058262,1.3971031
"HDB Block 107A, JLN BT MERAH",103.8265119,1.278962
"HDB Block 107A, RIVERVALE WALK",103.9006288,1.3828737
"HDB Block 107B, CANBERRA ST",103.8344536,1.4461814
"HDB Block 107B, EDGEFIELD PLAINS",103.9058262,1.3971031
"HDB Block 107C, CANBERRA ST",103.8333993,1.4487621
"HDB Block 107C, EDGEFIELD PLAINS",103.91228,1.395621
"HDB Block 107D, EDGEFIELD PLAINS",103.9058262,1.3971031
"HDB Block 108, ALJUNIED CRES",103.884983,1.31901
"HDB Block 108, ANG MO KIO AVE 4",103.8354369,1.3732259
"HDB Block 108, BEDOK NTH RD",103.9357956,1.33265
"HDB Block 108, BEDOK RESERVOIR RD",103.9095142,1.3301981
"HDB Block 108, BISHAN ST 12",103.847937,1.346401
"HDB Block 108, BT BATOK WEST AVE 6",103.7469544,1.3471557
"HDB Block 108, BT PURMEI RD",103.8255677,1.2725659
"HDB Block 108, C'WEALTH CRES",103.799033,1.307569
"HDB Block 108, CANBERRA WALK",103.8315537,1.4481731
"HDB Block 108, CLEMENTI ST 11",103.770304,1.322167
"HDB Block 108, DEPOT RD",103.8092881,1.2810873
"HDB Block 108, GANGSA RD",103.7672267,1.3776493
"HDB Block 108, HOUGANG AVE 1",103.889926,1.352862
"HDB Block 108, JLN BT MERAH",103.825703,1.279172
"HDB Block 108, JLN RAJAH",103.85538,1.327987
"HDB Block 108, JURONG EAST ST 13",103.736721,1.338307
"HDB Block 108, LENGKONG TIGA",103.909952,1.3251329
"HDB Block 108, LOR 1 TOA PAYOH",103.847301,1.3415469
"HDB Block 108, MCNAIR RD",103.859011,1.3203822
"HDB Block 108, PASIR RIS ST 12",103.958084,1.367035
"HDB Block 108, POTONG PASIR AVE 1",103.8678461,1.3350245
"HDB Block 108, PUNGGOL FIELD",103.9077744,1.3982741
"HDB Block 108, RIVERVALE WALK",103.9013428,1.3829166
"HDB Block 108, SERANGOON NTH AVE 1",103.8709492,1.3698433
"HDB Block 108, SIMEI ST 1",103.9510862,1.3429963
"HDB Block 108, SPOTTISWOODE PK RD",103.8359164,1.2735904
"HDB Block 108, TAMPINES ST 11",103.9457629,1.3467994
"HDB Block 108, TECK WHYE LANE",103.752861,1.378326
"HDB Block 108, WOODLANDS ST 13",103.78149,1.437235
"HDB Block 108, YISHUN RING RD",103.828498,1.432351
"HDB Block 108A, CLEMENTI ST 11",103.770614,1.31716
"HDB Block 108A, CANBERRA WALK",103.8315537,1.4481731
"HDB Block 108A, DEPOT RD",103.8092881,1.2810873
"HDB Block 108A, MCNAIR RD",103.8594201,1.3198357
"HDB Block 108A, PASIR RIS ST 12",103.958084,1.367035
"HDB Block 108B, CANBERRA WALK",103.8319959,1.4482245
"HDB Block 108B, MCNAIR RD",103.859011,1.3203822
"HDB Block 108C, CANBERRA WALK",103.8315537,1.4481731
"HDB Block 108C, MCNAIR RD",103.8594201,1.3198357
"HDB Block 108D, CANBERRA WALK",103.8315537,1.4481731
"HDB Block 109, ALJUNIED CRES",103.88437,1.31942
"HDB Block 109, ANG MO KIO AVE 4",103.837762,1.370202
"HDB Block 109, BEDOK RESERVOIR RD",103.909764,1.329737
"HDB Block 109, BEDOK NTH RD",103.9348777,1.3320701
"HDB Block 109, BISHAN ST 12",103.8477812,1.3468105
"HDB Block 109, BT PURMEI RD",103.8255677,1.2725659
"HDB Block 109, BT BATOK WEST AVE 6",103.7473,1.347288
"HDB Block 109, C'WEALTH CRES",103.8014077,1.3061852
"HDB Block 109, CLEMENTI ST 11",103.770365,1.32171
"HDB Block 109, GANGSA RD",103.767731,1.377455
"HDB Block 109, HOUGANG AVE 1",103.8892329,1.3553493
"HDB Block 109, JLN BT MERAH",103.8261846,1.279342
"HDB Block 109, JURONG EAST ST 13",103.73586,1.338341
"HDB Block 109, LENGKONG TIGA",103.9110929,1.324146
"HDB Block 109, LOR 1 TOA PAYOH",103.845095,1.33317
"HDB Block 109, MCNAIR RD",103.8591175,1.3215038
"HDB Block 109, PASIR RIS ST 11",103.9561839,1.368301
"HDB Block 109, POTONG PASIR AVE 1",103.8673759,1.334921
"HDB Block 109, PUNGGOL FIELD",103.912458,1.393522
"HDB Block 109, RIVERVALE WALK",103.8996388,1.3831898
"HDB Block 109, SERANGOON NTH AVE 1",103.870362,1.3694161
"HDB Block 109, SIMEI ST 1",103.9502281,1.3422075
"HDB Block 109, SPOTTISWOODE PK RD",103.8365623,1.2741218
"HDB Block 109, TAMPINES ST 11",103.9482691,1.3470258
"HDB Block 109, TECK WHYE LANE",103.751937,1.378651
"HDB Block 109, WHAMPOA RD",103.8591175,1.3215038
"HDB Block 109, WOODLANDS ST 13",103.7818313,1.4376741
"HDB Block 109, YISHUN RING RD",103.828475,1.432807
"HDB Block 109A, CLEMENTI ST 11",103.770365,1.32171
"HDB Block 109A, DEPOT RD",103.8092881,1.2810873
"HDB Block 109A, EDGEDALE PLAINS",103.91228,1.395621
"HDB Block 109B, DEPOT RD",103.8092881,1.2810873
"HDB Block 109B, EDGEDALE PLAINS",103.91228,1.395621
"HDB Block 109C, EDGEDALE PLAINS",103.91228,1.395621
"HDB Block 109D, EDGEDALE PLAINS",103.91228,1.395621
"HDB Block 11, BENDEMEER RD",103.8661565,1.3229808
"HDB Block 11, CANTONMENT CL",103.83965,1.274399
"HDB Block 11, CHAI CHEE RD",103.9227585,1.3241556
"HDB Block 11, EUNOS CRES",103.9032913,1.3243382
"HDB Block 11, FARRER PK RD",103.8521313,1.3124936
"HDB Block 11, HAIG RD",103.8965611,1.3150083
"HDB Block 11, HOLLAND DR",103.792731,1.308133
"HDB Block 11, JLN BATU",103.8826069,1.30161
"HDB Block 11, JLN BT MERAH",103.808937,1.286692
"HDB Block 11, JOO SENG RD",103.8807734,1.3348958
"HDB Block 11, LOR 8 TOA PAYOH",103.859005,1.337092
"HDB Block 11, MARSILING DR",103.772454,1.441967
"HDB Block 11, PINE CL",103.8826354,1.3082125
"HDB Block 11, ST. GEORGE'S RD",103.8632483,1.3232498
"HDB Block 11, TECK WHYE LANE",103.7548213,1.3798232
"HDB Block 11, TELOK BLANGAH CRES",103.8194526,1.2771949
"HDB Block 11, TOH YI DR",103.7728368,1.3378052
"HDB Block 11, UPP BOON KENG RD",103.872805,1.314313
"HDB Block 11, YORK HILL",103.8380367,1.287089
"HDB Block 11A, BOON TIONG RD",103.8289617,1.2869311
"HDB Block 11A, EUNOS CRES",103.9027909,1.323443
"HDB Block 11A, LOR 8 TOA PAYOH",103.859005,1.337092
"HDB Block 11A, PINE CL",103.8829254,1.3083857
"HDB Block 11B, BOON TIONG RD",103.8289617,1.2869311
"HDB Block 110, ALJUNIED CRES",103.884262,1.319943
"HDB Block 110, ANG MO KIO AVE 4",103.83728,1.370527
"HDB Block 110, BEDOK NTH RD",103.9346499,1.332489
"HDB Block 110, BEDOK RESERVOIR RD",103.910393,1.330146
"HDB Block 110, BISHAN ST 12",103.8473647,1.3472262
"HDB Block 110, BT PURMEI RD",103.8263975,1.2738033
"HDB Block 110, BT BATOK WEST AVE 6",103.7449246,1.3451103
"HDB Block 110, C'WEALTH CRES",103.7983689,1.3063499
"HDB Block 110, CLEMENTI ST 13",103.770649,1.3228549
"HDB Block 110, DEPOT RD",103.8092881,1.2810873
"HDB Block 110, GANGSA RD",103.7679348,1.378091
"HDB Block 110, HOUGANG AVE 1",103.8893159,1.3546974
"HDB Block 110, JLN BT MERAH",103.8267159,1.2797898
"HDB Block 110, JURONG EAST ST 13",103.737331,1.3356265
"HDB Block 110, LENGKONG TIGA",103.9110929,1.324146
"HDB Block 110, LOR 1 TOA PAYOH",103.8464599,1.341522
"HDB Block 110, MCNAIR RD",103.8583937,1.3212765
"HDB Block 110, PASIR RIS ST 11",103.956282,1.368735
"HDB Block 110, PUNGGOL FIELD",103.912458,1.393522
"HDB Block 110, RIVERVALE WALK",103.9013428,1.3829166
"HDB Block 110, SERANGOON NTH AVE 1",103.871251,1.369323
"HDB Block 110, SIMEI ST 1",103.950225,1.3427451
"HDB Block 110, SPOTTISWOODE PK RD",103.8364488,1.2736745
"HDB Block 110, TAMPINES ST 11",103.949156,1.347002
"HDB Block 110, TECK WHYE LANE",103.751619,1.378192
"HDB Block 110, WHAMPOA RD",103.855812,1.326789
"HDB Block 110, WOODLANDS ST 13",103.7818313,1.4376741
"HDB Block 110, YISHUN RING RD",103.8290368,1.4336984
"HDB Block 110A, DEPOT RD",103.8092881,1.2810873
"HDB Block 110A, LOR 1 TOA PAYOH",103.846146,1.341966
"HDB Block 110A, PUNGGOL FIELD",103.9077744,1.3982741
"HDB Block 110B, DEPOT RD",103.8092881,1.2810873
"HDB Block 110B, PUNGGOL FIELD",103.9077744,1.3982741
"HDB Block 110C, PUNGGOL FIELD",103.9097418,1.3956483
"HDB Block 110D, PUNGGOL FIELD",103.912458,1.393522
"HDB Block 111, ALJUNIED CRES",103.8844626,1.3205254
"HDB Block 111, ANG MO KIO AVE 4",103.837108,1.370889
"HDB Block 111, BEDOK RESERVOIR RD",103.9100834,1.3298423
"HDB Block 111, BEDOK NTH RD",103.9352553,1.3314967
"HDB Block 111, BISHAN ST 12",103.848149,1.347022
"HDB Block 111, BT BATOK WEST AVE 6",103.745936,1.348312
"HDB Block 111, BT PURMEI RD",103.8271205,1.2743215
"HDB Block 111, C'WEALTH CRES",103.7983689,1.3063499
"HDB Block 111, CLEMENTI ST 13",103.770966,1.323217
"HDB Block 111, EDGEFIELD PLAINS",103.91228,1.395621
"HDB Block 111, GANGSA RD",103.7682423,1.3782219
"HDB Block 111, HO CHING RD",103.724397,1.334777
"HDB Block 111, HOUGANG AVE 1",103.888869,1.354879
"HDB Block 111, JLN BT MERAH",103.8262821,1.2812632
"HDB Block 111, JURONG EAST ST 13",103.735505,1.338778
"HDB Block 111, LENGKONG TIGA",103.9110929,1.324146
"HDB Block 111, LOR 3 GEYLANG",103.873849,1.311808
"HDB Block 111, LOR 1 TOA PAYOH",103.845095,1.33317
"HDB Block 111, MCNAIR RD",103.8583937,1.3212765
"HDB Block 111, PASIR RIS ST 11",103.9563529,1.368042
"HDB Block 111, RIVERVALE WALK",103.900618,1.3841891
"HDB Block 111, SERANGOON NTH AVE 1",103.8704473,1.3690176
"HDB Block 111, SIMEI ST 1",103.949506,1.342442
"HDB Block 111, TAMPINES ST 11",103.9457629,1.3467994
"HDB Block 111, TECK WHYE LANE",103.751812,1.377836
"HDB Block 111, WHAMPOA RD",103.8572582,1.3266932
"HDB Block 111, WOODLANDS ST 13",103.7821713,1.4378205
"HDB Block 111, YISHUN RING RD",103.828539,1.4332368
"HDB Block 111A, DEPOT RD",103.8092881,1.2810873
"HDB Block 111A, RIVERVALE WALK",103.9013428,1.3829166
"HDB Block 111A, WHAMPOA RD",103.8572582,1.3266932
"HDB Block 111B, DEPOT RD",103.8085223,1.2812783
"HDB Block 112, ALJUNIED CRES",103.885443,1.320455
"HDB Block 112, ANG MO KIO AVE 4",103.835594,1.371316
"HDB Block 112, BEDOK NTH RD",103.9355574,1.331071
"HDB Block 112, BEDOK RESERVOIR RD",103.910469,1.3297699
"HDB Block 112, BISHAN ST 12",103.848853,1.346821
"HDB Block 112, BT BATOK WEST AVE 6",103.7449246,1.3451103
"HDB Block 112, BT PURMEI RD",103.825954,1.274545
"HDB Block 112, C'WEALTH CRES",103.7981321,1.3066715
"HDB Block 112, CLEMENTI ST 13",103.769807,1.323304
"HDB Block 112, EDGEFIELD PLAINS",103.9129263,1.4054079
"HDB Block 112, HOUGANG AVE 1",103.8884305,1.3543214
"HDB Block 112, HO CHING RD",103.723636,1.333898
"HDB Block 112, JLN BT MERAH",103.8264491,1.2815439
"HDB Block 112, JURONG EAST ST 13",103.7354212,1.3392422
"HDB Block 112, LENGKONG TIGA",103.9110929,1.324146
"HDB Block 112, LOR 1 TOA PAYOH",103.845538,1.338334
"HDB Block 112, LOR 3 GEYLANG",103.873849,1.311808
"HDB Block 112, MCNAIR RD",103.8588785,1.3209186
"HDB Block 112, PASIR RIS ST 11",103.955746,1.367717
"HDB Block 112, PENDING RD",103.768643,1.378523
"HDB Block 112, RIVERVALE WALK",103.9029734,1.3890374
"HDB Block 112, SERANGOON NTH AVE 1",103.871433,1.369137
"HDB Block 112, SIMEI ST 1",103.9499077,1.3428567
"HDB Block 112, TAMPINES ST 11",103.9473496,1.3462848
"HDB Block 112, TECK WHYE LANE",103.75176,1.37755
"HDB Block 112, WHAMPOA RD",103.8572582,1.3266932
"HDB Block 112, WOODLANDS ST 13",103.7818254,1.4382846
"HDB Block 112, YISHUN RING RD",103.8289012,1.4342433
"HDB Block 112A, DEPOT RD",103.8081167,1.281594
"HDB Block 112A, WHAMPOA RD",103.8572582,1.3266932
"HDB Block 112B, DEPOT RD",103.8077482,1.2816962
"HDB Block 112C, DEPOT RD",103.8092881,1.2810873
"HDB Block 113, ALJUNIED AVE 2",103.8871123,1.3201362
"HDB Block 113, ANG MO KIO AVE 4",103.8361313,1.3718128
"HDB Block 113, BEDOK RESERVOIR RD",103.910514,1.330786
"HDB Block 113, BEDOK NTH ST 2",103.9350686,1.3303322
"HDB Block 113, BISHAN ST 12",103.848592,1.3472519
"HDB Block 113, BT BATOK WEST AVE 6",103.745265,1.3488039
"HDB Block 113, BT PURMEI RD",103.8265428,1.2748129
"HDB Block 113, C'WEALTH CRES",103.7979674,1.3068443
"HDB Block 113, CLEMENTI ST 13",103.7701095,1.3236328
"HDB Block 113, DEPOT RD",103.807213,1.2814773
"HDB Block 113, EDGEFIELD PLAINS",103.9058262,1.3971031
"HDB Block 113, HOUGANG AVE 1",103.888684,1.353566
"HDB Block 113, JLN BT MERAH",103.8265119,1.278962
"HDB Block 113, JURONG EAST ST 13",103.7350079,1.3388739
"HDB Block 113, LENGKONG TIGA",103.9110929,1.324146
"HDB Block 113, LOR 3 GEYLANG",103.873849,1.311808
"HDB Block 113, LOR 1 TOA PAYOH",103.84452,1.341228
"HDB Block 113, MCNAIR RD",103.8599708,1.3211714
"HDB Block 113, PASIR RIS ST 11",103.955754,1.368044
"HDB Block 113, PENDING RD",103.7693521,1.3783821
"HDB Block 113, POTONG PASIR AVE 1",103.863114,1.3348472
"HDB Block 113, RIVERVALE WALK",103.9015756,1.3843141
"HDB Block 113, SERANGOON NTH AVE 1",103.8703722,1.3686958
"HDB Block 113, SIMEI ST 1",103.9499077,1.3428567
"HDB Block 113, TAMPINES ST 11",103.946355,1.346586
"HDB Block 113, TAO CHING RD",103.7245903,1.3333403
"HDB Block 113, TECK WHYE LANE",103.750801,1.377988
"HDB Block 113, WHAMPOA RD",103.8572582,1.3266932
"HDB Block 113, WOODLANDS ST 13",103.78113,1.437937
"HDB Block 113, YISHUN RING RD",103.8286466,1.4344957
"HDB Block 113A, JLN BT MERAH",103.825187,1.280295
"HDB Block 113A, MCNAIR RD",103.8599708,1.3211714
"HDB Block 113B, MCNAIR RD",103.8599708,1.3211714
"HDB Block 113C, MCNAIR RD",103.8591175,1.3215038
"HDB Block 113D, MCNAIR RD",103.8599708,1.3211714
"HDB Block 114, ALJUNIED AVE 2",103.8871123,1.3201362
"HDB Block 114, ANG MO KIO AVE 4",103.835855,1.372704
"HDB Block 114, BEDOK NTH ST 2",103.9348944,1.3298231
"HDB Block 114, BEDOK RESERVOIR RD",103.909763,1.330583
"HDB Block 114, BISHAN ST 12",103.8484672,1.3476009
"HDB Block 114, BT PURMEI RD",103.825967,1.2751196
"HDB Block 114, BT BATOK WEST AVE 6",103.7459793,1.34885
"HDB Block 114, CANBERRA WALK",103.8296255,1.4459975
"HDB Block 114, CLEMENTI ST 13",103.7709129,1.323777
"HDB Block 114, DEPOT RD",103.8068384,1.2818512
"HDB Block 114, EDGEFIELD PLAINS",103.9129263,1.4054079
"HDB Block 114, HO CHING RD",103.724129,1.3338589
"HDB Block 114, HOUGANG AVE 1",103.888846,1.352895
"HDB Block 114, JURONG EAST ST 13",103.734525,1.339154
"HDB Block 114, LENGKONG TIGA",103.9110929,1.324146
"HDB Block 114, LOR 1 TOA PAYOH",103.844238,1.340965
"HDB Block 114, LOR 3 GEYLANG",103.873849,1.311808
"HDB Block 114, MARSILING RISE",103.7812842,1.4388012
"HDB Block 114, MCNAIR RD",103.8599708,1.3211714
"HDB Block 114, PASIR RIS ST 11",103.954686,1.368533
"HDB Block 114, PENDING RD",103.7697952,1.3778241
"HDB Block 114, POTONG PASIR AVE 1",103.863212,1.3367579
"HDB Block 114, RIVERVALE WALK",103.9010733,1.3840429
"HDB Block 114, SERANGOON NTH AVE 1",103.8727501,1.3682021
"HDB Block 114, SIMEI ST 1",103.9532624,1.3454024
"HDB Block 114, TAMPINES ST 11",103.9468845,1.3460589
"HDB Block 114, TECK WHYE LANE",103.750904,1.378523
"HDB Block 114, WHAMPOA RD",103.8572582,1.3266932
"HDB Block 114, YISHUN RING RD",103.826641,1.434638
"HDB Block 114A, BEDOK NTH ST 2",103.9348944,1.3298231
"HDB Block 114A, LOR 3 GEYLANG",103.873849,1.311808
"HDB Block 115, ALJUNIED AVE 2",103.887252,1.321292
"HDB Block 115, ANG MO KIO AVE 4",103.836116,1.373035
"HDB Block 115, BEDOK NTH RD",103.9373904,1.3316406
"HDB Block 115, BEDOK RESERVOIR RD",103.9082767,1.3307415
"HDB Block 115, BISHAN ST 12",103.848478,1.3479429
"HDB Block 115, BT MERAH VIEW",103.8233314,1.2830717
"HDB Block 115, BT PURMEI RD",103.8255677,1.2725659
"HDB Block 115, BT MERAH CTRL",103.8262821,1.2812632
"HDB Block 115, BT BATOK WEST AVE 6",103.7465689,1.3491629
"HDB Block 115, CANBERRA WALK",103.8291887,1.4465795
"HDB Block 115, CLEMENTI ST 13",103.771261,1.3238399
"HDB Block 115, EDGEFIELD PLAINS",103.9129263,1.4054079
"HDB Block 115, HOUGANG AVE 1",103.88785,1.3527849
"HDB Block 115, JLN BT MERAH",103.8262821,1.2812632
"HDB Block 115, JURONG EAST ST 13",103.735135,1.339748
"HDB Block 115, LENGKONG TIGA",103.9110929,1.324146
"HDB Block 115, LOR 1 TOA PAYOH",103.844182,1.340641
"HDB Block 115, MARSILING RISE",103.7811934,1.4384952
"HDB Block 115, PASIR RIS ST 11",103.954736,1.368908
"HDB Block 115, PENDING RD",103.7693521,1.3783821
"HDB Block 115, POTONG PASIR AVE 1",103.862782,1.3372294
"HDB Block 115, RIVERVALE WALK",103.9013428,1.3829166
"HDB Block 115, SERANGOON NTH AVE 1",103.870286,1.3683235
"HDB Block 115, SIMEI ST 1",103.9532624,1.3454024
"HDB Block 115, TECK WHYE LANE",103.7512281,1.3789764
"HDB Block 115, WHAMPOA RD",103.8572582,1.3266932
"HDB Block 115, YISHUN RING RD",103.826641,1.434638
"HDB Block 115A, ALKAFF CRES",103.8722204,1.3363156
"HDB Block 115A, BEDOK NTH RD",103.9373904,1.3316406
"HDB Block 115A, CANBERRA WALK",103.8291887,1.4465795
"HDB Block 115A, HO CHING RD",103.7245414,1.3339914
"HDB Block 115A, YISHUN RING RD",103.826853,1.433621
"HDB Block 115B, ALKAFF CRES",103.8722204,1.3363156
"HDB Block 115B, CANBERRA WALK",103.829348,1.4463393
"HDB Block 115B, YISHUN RING RD",103.826853,1.433621
"HDB Block 115C, ALKAFF CRES",103.8722204,1.3363156
"HDB Block 115C, CANBERRA WALK",103.8296255,1.4459975
"HDB Block 115C, YISHUN RING RD",103.826853,1.433621
"HDB Block 115D, CANBERRA WALK",103.8296255,1.4459975
"HDB Block 116, ALJUNIED AVE 2",103.8867085,1.3213688
"HDB Block 116, ANG MO KIO AVE 4",103.8361956,1.3734378
"HDB Block 116, BEDOK NTH RD",103.93806,1.3309721
"HDB Block 116, BEDOK RESERVOIR RD",103.9082458,1.3311645
"HDB Block 116, BISHAN ST 12",103.8493249,1.3477539
"HDB Block 116, BT MERAH VIEW",103.8233314,1.2830717
"HDB Block 116, BT BATOK WEST AVE 6",103.746301,1.349587
"HDB Block 116, BT MERAH CTRL",103.8149968,1.2839699
"HDB Block 116, C'WEALTH CRES",103.7999822,1.3070224
"HDB Block 116, CLEMENTI ST 13",103.77183,1.324409
"HDB Block 116, EDGEFIELD PLAINS",103.9058262,1.3971031
"HDB Block 116, HOUGANG AVE 1",103.887769,1.353166
"HDB Block 116, HO CHING RD",103.7231717,1.3348261
"HDB Block 116, JLN TENTERAM",103.8600775,1.3279514
"HDB Block 116, JLN BT MERAH",103.8264491,1.2815439
"HDB Block 116, JURONG EAST ST 13",103.7345751,1.3396866
"HDB Block 116, LENGKONG TIGA",103.9110929,1.324146
"HDB Block 116, LOR 2 TOA PAYOH",103.8460393,1.3404295
"HDB Block 116, MARSILING RISE",103.780304,1.4380949
"HDB Block 116, PASIR RIS ST 11",103.954464,1.368376
"HDB Block 116, PENDING RD",103.7686997,1.3771875
"HDB Block 116, POTONG PASIR AVE 1",103.86262,1.336827
"HDB Block 116, SERANGOON NTH AVE 1",103.8727501,1.3682021
"HDB Block 116, SIMEI ST 1",103.9516659,1.3439542
"HDB Block 116, TECK WHYE LANE",103.7515321,1.3795708
"HDB Block 116, YISHUN RING RD",103.826641,1.434638
"HDB Block 116A, BT MERAH CTRL",103.8149968,1.2839699
"HDB Block 116A, BEDOK NTH RD",103.9348777,1.3320701
"HDB Block 116A, CANBERRA CRES",103.8323162,1.446054
"HDB Block 116A, JLN TENTERAM",103.8600775,1.3279514
"HDB Block 116A, RIVERVALE DR",103.9018617,1.3855816
"HDB Block 116B, JLN TENTERAM",103.8600775,1.3279514
"HDB Block 116B, RIVERVALE DR",103.9018617,1.3855816
"HDB Block 116C, RIVERVALE DR",103.9018617,1.3855816
"HDB Block 116D, RIVERVALE DR",103.9018617,1.3855816
"HDB Block 117, ALJUNIED AVE 2",103.8871123,1.3201362
"HDB Block 117, ALKAFF CRES",103.8722204,1.3363156
"HDB Block 117, ANG MO KIO AVE 4",103.8355084,1.3738263
"HDB Block 117, BEDOK NTH RD",103.937147,1.3307827
"HDB Block 117, BEDOK RESERVOIR RD",103.9085625,1.3314095
"HDB Block 117, BISHAN ST 12",103.8499666,1.3469812
"HDB Block 117, BT BATOK WEST AVE 6",103.747152,1.349947
"HDB Block 117, BT MERAH VIEW",103.8233314,1.2830717
"HDB Block 117, BT MERAH CTRL",103.826811,1.2817897
"HDB Block 117, C'WEALTH DR",103.8002085,1.3066305
"HDB Block 117, CANBERRA CRES",103.8302401,1.4452047
"HDB Block 117, CLEMENTI ST 13",103.7710605,1.324404
"HDB Block 117, EDGEFIELD PLAINS",103.9133916,1.4053002
"HDB Block 117, HOUGANG AVE 1",103.8881977,1.3535448
"HDB Block 117, HO CHING RD",103.723063,1.335113
"HDB Block 117, JLN BT MERAH",103.826811,1.2817897
"HDB Block 117, JLN TENTERAM",103.8607766,1.3282925
"HDB Block 117, LOR 1 TOA PAYOH",103.845176,1.339918
"HDB Block 117, MARSILING RISE",103.7801977,1.4381472
"HDB Block 117, PASIR RIS ST 11",103.955766,1.366562
"HDB Block 117, PENDING RD",103.7679069,1.377329
"HDB Block 117, POTONG PASIR AVE 1",103.863114,1.3348472
"HDB Block 117, SERANGOON NTH AVE 1",103.870696,1.367952
"HDB Block 117, SIMEI ST 1",103.9513563,1.3446047
"HDB Block 117, TAMPINES ST 11",103.9462521,1.3454722
"HDB Block 117, TECK WHYE LANE",103.7512548,1.3795718
"HDB Block 117, YISHUN RING RD",103.826641,1.434638
"HDB Block 117A, CANBERRA CRES",103.8302401,1.4452047
"HDB Block 117A, HO CHING RD",103.723473,1.335362
"HDB Block 117A, JLN MEMBINA",103.8255818,1.2815933
"HDB Block 117A, JLN TENTERAM",103.8607766,1.3282925
"HDB Block 117A, RIVERVALE DR",103.9018617,1.3855816
"HDB Block 117B, CANBERRA CRES",103.8323162,1.446054
"HDB Block 117B, JLN TENTERAM",103.8607766,1.3282925
"HDB Block 117B, RIVERVALE DR",103.9018617,1.3855816
"HDB Block 117C, RIVERVALE DR",103.9018617,1.3855816
"HDB Block 117D, RIVERVALE DR",103.9018617,1.3855816
"HDB Block 118, ALKAFF CRES",103.8722204,1.3363156
"HDB Block 118, ALJUNIED AVE 2",103.8873942,1.3200026
"HDB Block 118, ANG MO KIO AVE 4",103.8354369,1.3732259
"HDB Block 118, BEDOK RESERVOIR RD",103.9091187,1.331141
"HDB Block 118, BEDOK NTH ST 2",103.9375042,1.3304161
"HDB Block 118, BISHAN ST 12",103.8504571,1.346539
"HDB Block 118, BT MERAH VIEW",103.820957,1.2841192
"HDB Block 118, BT BATOK WEST AVE 6",103.74652,1.349998
"HDB Block 118, C'WEALTH CRES",103.8006349,1.3066423
"HDB Block 118, CANBERRA CRES",103.8308886,1.4459789
"HDB Block 118, CLEMENTI ST 13",103.771791,1.3249006
"HDB Block 118, CORPORATION DR",103.7234948,1.3358639
"HDB Block 118, EDGEFIELD PLAINS",103.9062984,1.3965019
"HDB Block 118, HOUGANG AVE 1",103.8874136,1.3535772
"HDB Block 118, JLN MEMBINA",103.8255818,1.2815933
"HDB Block 118, LOR 1 TOA PAYOH",103.8445237,1.339649
"HDB Block 118, MARSILING RISE",103.780462,1.43847
"HDB Block 118, PASIR RIS ST 11",103.9545808,1.3672349
"HDB Block 118, PENDING RD",103.7683664,1.376904
"HDB Block 118, POTONG PASIR AVE 1",103.862635,1.3355
"HDB Block 118, RIVERVALE DR",103.9018617,1.3855816
"HDB Block 118, SERANGOON NTH AVE 1",103.870653,1.3675041
"HDB Block 118, TECK WHYE LANE",103.750539,1.379878
"HDB Block 118, YISHUN RING RD",103.8287129,1.435967
"HDB Block 118A, ALKAFF CRES",103.8722204,1.3363156
"HDB Block 118A, BT MERAH VIEW",103.8233314,1.2830717
"HDB Block 118A, CANBERRA CRES",103.8323162,1.446054
"HDB Block 118A, CORPORATION DR",103.7234948,1.3358639
"HDB Block 118A, JLN MEMBINA",103.8255818,1.2815933
"HDB Block 118A, LOR 1 TOA PAYOH",103.845538,1.338334
"HDB Block 118A, TECK WHYE LANE",103.750539,1.379878
"HDB Block 118B, CANBERRA CRES",103.829462,1.4451407
"HDB Block 118B, JLN MEMBINA",103.8256791,1.2815308
"HDB Block 118C, JLN MEMBINA",103.8255818,1.2815933
"HDB Block 118D, JLN MEMBINA",103.8268112,1.2826578
"HDB Block 119, ALJUNIED AVE 2",103.886567,1.3192531
"HDB Block 119, ANG MO KIO AVE 3",103.8443489,1.369612
"HDB Block 119, BEDOK NTH RD",103.9381664,1.3300662
"HDB Block 119, BEDOK RESERVOIR RD",103.9094611,1.3310838
"HDB Block 119, BISHAN ST 12",103.850536,1.347191
"HDB Block 119, BT BATOK WEST AVE 6",103.7468091,1.3504107
"HDB Block 119, BT MERAH VIEW",103.8233314,1.2830717
"HDB Block 119, BT MERAH CTRL",103.8161417,1.2827948
"HDB Block 119, BT MERAH LANE 1",103.804753,1.286106
"HDB Block 119, CANBERRA CRES",103.8308886,1.4459789
"HDB Block 119, EDGEFIELD PLAINS",103.9058262,1.3971031
"HDB Block 119, HOUGANG AVE 1",103.88788,1.354061
"HDB Block 119, HO CHING RD",103.724397,1.334777
"HDB Block 119, KIM TIAN RD",103.8274694,1.2811332
"HDB Block 119, LOR 1 TOA PAYOH",103.845538,1.338334
"HDB Block 119, MARSILING RISE",103.7807184,1.438845
"HDB Block 119, MCNAIR RD",103.8573456,1.3197492
"HDB Block 119, PASIR RIS ST 11",103.954725,1.367521
"HDB Block 119, PENDING RD",103.769023,1.376666
"HDB Block 119, POTONG PASIR AVE 1",103.863114,1.3348472
"HDB Block 119, RIVERVALE DR",103.9018617,1.3855816
"HDB Block 119, SERANGOON NTH AVE 1",103.870696,1.367952
"HDB Block 119, SIMEI ST 1",103.9519021,1.3437233
"HDB Block 119, TECK WHYE LANE",103.755083,1.377951
"HDB Block 119, YISHUN RING RD",103.829091,1.43539
"HDB Block 119A, CANBERRA CRES",103.8308886,1.4459789
"HDB Block 119A, KIM TIAN RD",103.8271345,1.2808895
"HDB Block 119A, RIVERVALE DR",103.9018617,1.3855816
"HDB Block 119B, CANBERRA CRES",103.8314945,1.4460888
"HDB Block 119B, KIM TIAN RD",103.8274694,1.2811332
"HDB Block 119B, RIVERVALE DR",103.9018617,1.3855816
"HDB Block 119C, KIM TIAN RD",103.8276178,1.2815585
"HDB Block 119C, RIVERVALE DR",103.9018617,1.3855816
"HDB Block 119D, KIM TIAN RD",103.8282722,1.2809123
"HDB Block 119D, RIVERVALE DR",103.9018617,1.3855816
"HDB Block 12, BEDOK STH AVE 2",103.9367928,1.32117
"HDB Block 12, CANTONMENT CL",103.8400975,1.2744605
"HDB Block 12, DAKOTA CRES",103.88494,1.306636
"HDB Block 12, DOVER CL EAST",103.785254,1.304594
"HDB Block 12, EUNOS CRES",103.904103,1.3222449
"HDB Block 12, FARRER PK RD",103.8516568,1.3121066
"HDB Block 12, HAIG RD",103.8959431,1.3137651
"HDB Block 12, HOLLAND AVE",103.794362,1.307555
"HDB Block 12, JLN BT MERAH",103.806935,1.287427
"HDB Block 12, JOO SENG RD",103.8802043,1.3346768
"HDB Block 12, KG ARANG RD",103.8842269,1.3001581
"HDB Block 12, LOR 7 TOA PAYOH",103.857473,1.3367269
"HDB Block 12, MARINE TER",103.9156281,1.3045658
"HDB Block 12, MARSILING LANE",103.7720515,1.4476034
"HDB Block 12, MERPATI RD",103.8844902,1.3275438
"HDB Block 12, NTH BRIDGE RD",103.8627277,1.3043727
"HDB Block 12, PINE CL",103.8822155,1.3085454
"HDB Block 12, ST. GEORGE'S RD",103.8632483,1.3232498
"HDB Block 12, TAMAN HO SWEE",103.830859,1.28813
"HDB Block 12, TECK WHYE LANE",103.7556118,1.3795052
"HDB Block 12, TELOK BLANGAH CRES",103.8194526,1.2771949
"HDB Block 12, TOH YI DR",103.772782,1.338392
"HDB Block 12, UPP BOON KENG RD",103.8700804,1.3142636
"HDB Block 12, YORK HILL",103.8378791,1.2869239
"HDB Block 12A, BEDOK STH RD",103.94071,1.321135
"HDB Block 12A, DOVER CL EAST",103.785977,1.305474
"HDB Block 12A, MARINE TER",103.9156281,1.3045658
"HDB Block 12A, MARSILING LANE",103.7782831,1.4419798
"HDB Block 12A, TAMAN HO SWEE",103.830859,1.28813
"HDB Block 12B, MARSILING LANE",103.7782831,1.4419798
"HDB Block 12C, MARSILING LANE",103.7777738,1.4409638
"HDB Block 12D, MARSILING LANE",103.7720515,1.4476034
"HDB Block 120, ANG MO KIO AVE 3",103.844264,1.370092
"HDB Block 120, BEDOK RESERVOIR RD",103.9098902,1.3309122
"HDB Block 120, BEDOK NTH ST 2",103.9372637,1.3299399
"HDB Block 120, BISHAN ST 12",103.8508373,1.3471837
"HDB Block 120, BT BATOK CTRL",103.747332,1.350787
"HDB Block 120, BT MERAH LANE 1",103.8045381,1.2866356
"HDB Block 120, BT MERAH VIEW",103.8233314,1.2830717
"HDB Block 120, CANBERRA CRES",103.8323162,1.446054
"HDB Block 120, EDGEDALE PLAINS",103.9083561,1.3943221
"HDB Block 120, GEYLANG EAST CTRL",103.8847277,1.3182037
"HDB Block 120, HO CHING RD",103.723978,1.335232
"HDB Block 120, HOUGANG AVE 1",103.8878469,1.354379
"HDB Block 120, KIM TIAN PL",103.827385,1.283349
"HDB Block 120, LOR 2 TOA PAYOH",103.8455562,1.3391474
"HDB Block 120, MARSILING RISE",103.780447,1.439225
"HDB Block 120, MCNAIR RD",103.856938,1.319295
"HDB Block 120, PASIR RIS ST 11",103.954351,1.367281
"HDB Block 120, PAYA LEBAR WAY",103.8842882,1.3225943
"HDB Block 120, PENDING RD",103.7691863,1.3770133
"HDB Block 120, POTONG PASIR AVE 1",103.862635,1.3355
"HDB Block 120, RIVERVALE DR",103.9018617,1.3855816
"HDB Block 120, SERANGOON NTH AVE 1",103.8709247,1.3672274
"HDB Block 120, SIMEI ST 1",103.9531486,1.344759
"HDB Block 120, TECK WHYE LANE",103.7499886,1.3787847
"HDB Block 120, YISHUN RING RD",103.8292786,1.434817
"HDB Block 120A, CANBERRA CRES",103.8323162,1.446054
"HDB Block 120A, EDGEDALE PLAINS",103.9083561,1.3943221
"HDB Block 120A, HO CHING RD",103.724397,1.334777
"HDB Block 120A, KIM TIAN PL",103.827385,1.283349
"HDB Block 120A, LOR 2 TOA PAYOH",103.8455562,1.3391474
"HDB Block 120A, RIVERVALE DR",103.9018617,1.3855816
"HDB Block 120B, CANBERRA CRES",103.8313172,1.4455753
"HDB Block 120B, EDGEDALE PLAINS",103.9083561,1.3943221
"HDB Block 120B, KIM TIAN PL",103.827385,1.283349
"HDB Block 120B, RIVERVALE DR",103.9018617,1.3855816
"HDB Block 120C, CANBERRA CRES",103.8323162,1.446054
"HDB Block 120C, RIVERVALE DR",103.9018617,1.3855816
"HDB Block 120D, CANBERRA CRES",103.8323162,1.446054
"HDB Block 120D, RIVERVALE DR",103.9018617,1.3855816
"HDB Block 121, ANG MO KIO AVE 3",103.843763,1.369835
"HDB Block 121, BEDOK NTH RD",103.9387352,1.3296222
"HDB Block 121, BEDOK RESERVOIR RD",103.9100166,1.3313269
"HDB Block 121, BISHAN ST 12",103.851076,1.347181
"HDB Block 121, BT MERAH VIEW",103.822783,1.28305
"HDB Block 121, BT MERAH LANE 1",103.8051241,1.2865154
"HDB Block 121, BT BATOK CTRL",103.7477785,1.351624
"HDB Block 121, CANBERRA ST",103.8336057,1.4472603
"HDB Block 121, EDGEDALE PLAINS",103.9092228,1.3938999
"HDB Block 121, GEYLANG EAST CTRL",103.8853741,1.3180755
"HDB Block 121, HOUGANG AVE 1",103.8868919,1.3536117
"HDB Block 121, KIM TIAN PL",103.8281776,1.2827133
"HDB Block 121, LOR 2 TOA PAYOH",103.8462067,1.3392063
"HDB Block 121, MARSILING RISE",103.780447,1.439225
"HDB Block 121, MCNAIR RD",103.8563885,1.3189161
"HDB Block 121, PASIR RIS ST 11",103.954398,1.366873
"HDB Block 121, PAYA LEBAR WAY",103.8831122,1.3220846
"HDB Block 121, PENDING RD",103.7697094,1.3773644
"HDB Block 121, POTONG PASIR AVE 1",103.8654256,1.3357678
"HDB Block 121, RIVERVALE DR",103.9046241,1.3867005
"HDB Block 121, SERANGOON NTH AVE 1",103.8708747,1.3667953
"HDB Block 121, TECK WHYE LANE",103.750044,1.378337
"HDB Block 121, YISHUN ST 11",103.8299146,1.4342778
"HDB Block 121, YUAN CHING RD",103.723436,1.327773
"HDB Block 121A, CANBERRA ST",103.8336057,1.4472603
"HDB Block 121A, EDGEDALE PLAINS",103.9083561,1.3943221
"HDB Block 121A, KIM TIAN PL",103.8281776,1.2827133
"HDB Block 121A, RIVERVALE DR",103.9046241,1.3867005
"HDB Block 121A, YUAN CHING RD",103.723436,1.327773
"HDB Block 121B, CANBERRA ST",103.8336057,1.4472603
"HDB Block 121B, EDGEDALE PLAINS",103.9092228,1.3938999
"HDB Block 121B, RIVERVALE DR",103.9018617,1.3855816
"HDB Block 121C, CANBERRA ST",103.8336057,1.4472603
"HDB Block 121C, SENGKANG EAST WAY",103.8947318,1.3938803
"HDB Block 121D, CANBERRA ST",103.8336057,1.4472603
"HDB Block 121D, SENGKANG EAST WAY",103.8952717,1.3935475
"HDB Block 121E, SENGKANG EAST WAY",103.8952717,1.3935475
"HDB Block 121F, SENGKANG EAST WAY",103.8947318,1.3938803
"HDB Block 122, ANG MO KIO AVE 3",103.843297,1.370211
"HDB Block 122, BEDOK NTH ST 2",103.910558,1.332011
"HDB Block 122, BEDOK RESERVOIR RD",103.910558,1.332011
"HDB Block 122, BISHAN ST 12",103.8510498,1.3467128
"HDB Block 122, BT BATOK CTRL",103.747076,1.351879
"HDB Block 122, BT MERAH LANE 1",103.804197,1.2863761
"HDB Block 122, EDGEDALE PLAINS",103.9151785,1.4043693
"HDB Block 122, GEYLANG EAST CTRL",103.8847277,1.3182037
"HDB Block 122, HOUGANG AVE 1",103.8865194,1.3538011
"HDB Block 122, KIM TIAN RD",103.828749,1.2834333
"HDB Block 122, LOR 2 TOA PAYOH",103.8462568,1.3401457
"HDB Block 122, MARSILING RISE",103.7797362,1.4389085
"HDB Block 122, MCNAIR RD",103.856938,1.319295
"HDB Block 122, PASIR RIS ST 11",103.954725,1.367521
"HDB Block 122, PAYA LEBAR WAY",103.8823619,1.3226069
"HDB Block 122, PENDING RD",103.769978,1.377725
"HDB Block 122, POTONG PASIR AVE 1",103.8660439,1.3348561
"HDB Block 122, SENGKANG EAST WAY",103.8947318,1.3938803
"HDB Block 122, SERANGOON NTH AVE 1",103.8714797,1.3669714
"HDB Block 122, SIMEI ST 1",103.9532624,1.3454024
"HDB Block 122, TECK WHYE LANE",103.749627,1.378532
"HDB Block 122, YISHUN ST 11",103.8311375,1.434982
"HDB Block 122, YUAN CHING RD",103.7237786,1.3359291
"HDB Block 122A, EDGEDALE PLAINS",103.9092228,1.3938999
"HDB Block 122A, SENGKANG EAST WAY",103.8947318,1.3938803
"HDB Block 122B, EDGEDALE PLAINS",103.91228,1.395621
"HDB Block 122B, SENGKANG EAST WAY",103.8947318,1.3938803
"HDB Block 122C, SENGKANG EAST WAY",103.8952717,1.3935475
"HDB Block 122D, RIVERVALE DR",103.9018617,1.3855816
"HDB Block 122E, RIVERVALE DR",103.9018617,1.3855816
"HDB Block 122F, RIVERVALE DR",103.9018617,1.3855816
"HDB Block 123, ANG MO KIO AVE 6",103.8448226,1.3704402
"HDB Block 123, BEDOK NTH ST 2",103.9103574,1.3324057
"HDB Block 123, BEDOK RESERVOIR RD",103.9103574,1.3324057
"HDB Block 123, BISHAN ST 12",103.8504571,1.346539
"HDB Block 123, BT BATOK CTRL",103.7498534,1.3499669
"HDB Block 123, BT MERAH LANE 1",103.808937,1.286692
"HDB Block 123, BT MERAH VIEW",103.8231967,1.284223
"HDB Block 123, GEYLANG EAST CTRL",103.8853741,1.3180755
"HDB Block 123, HOUGANG AVE 1",103.8861709,1.3533485
"HDB Block 123, KIM TIAN RD",103.8290759,1.2837037
"HDB Block 123, LOR 1 TOA PAYOH",103.8456788,1.3386519
"HDB Block 123, MARSILING RISE",103.779209,1.439191
"HDB Block 123, MCNAIR RD",103.8565288,1.3180529
"HDB Block 123, PASIR RIS ST 11",103.954014,1.366228
"HDB Block 123, PAYA LEBAR WAY",103.8833013,1.3228251
"HDB Block 123, PENDING RD",103.7693521,1.3783821
"HDB Block 123, POTONG PASIR AVE 1",103.8657209,1.335317
"HDB Block 123, RIVERVALE DR",103.9018617,1.3855816
"HDB Block 123, SERANGOON NTH AVE 1",103.872153,1.366521
"HDB Block 123, SIMEI ST 1",103.9532624,1.3454024
"HDB Block 123, TECK WHYE LANE",103.74936,1.3792629
"HDB Block 123, YISHUN ST 11",103.8318516,1.4345948
"HDB Block 123A, LOR 1 TOA PAYOH",103.8456788,1.3386519
"HDB Block 123A, RIVERVALE DR",103.9018617,1.3855816
"HDB Block 123B, RIVERVALE DR",103.9018617,1.3855816
"HDB Block 123C, RIVERVALE DR",103.9018617,1.3855816
"HDB Block 123D, RIVERVALE DR",103.9018617,1.3855816
"HDB Block 123E, RIVERVALE DR",103.9018617,1.3855816
"HDB Block 124, ANG MO KIO AVE 6",103.8448123,1.3708619
"HDB Block 124, BEDOK RESERVOIR RD",103.910055,1.3326976
"HDB Block 124, BEDOK NTH RD",103.9390377,1.3292518
"HDB Block 124, BISHAN ST 12",103.8515411,1.3470389
"HDB Block 124, BT BATOK CTRL",103.748219,1.35019
"HDB Block 124, BT MERAH LANE 1",103.803446,1.2859364
"HDB Block 124, GEYLANG EAST AVE 1",103.8863517,1.3182193
"HDB Block 124, HOUGANG AVE 1",103.8865081,1.3528446
"HDB Block 124, KIM TIAN PL",103.8280489,1.28397
"HDB Block 124, LOR 1 TOA PAYOH",103.8446042,1.3386513
"HDB Block 124, MARSILING RISE",103.7797362,1.4389085
"HDB Block 124, MCNAIR RD",103.8559709,1.318357
"HDB Block 124, PAYA LEBAR WAY",103.8838481,1.3231988
"HDB Block 124, PASIR RIS ST 11",103.954219,1.365868
"HDB Block 124, PENDING RD",103.7710478,1.3768524
"HDB Block 124, POTONG PASIR AVE 1",103.865427,1.335364
"HDB Block 124, RIVERVALE DR",103.9018617,1.3855816
"HDB Block 124, SERANGOON NTH AVE 1",103.8713915,1.3661645
"HDB Block 124, SIMEI ST 1",103.9532624,1.3454024
"HDB Block 124, TAMPINES ST 11",103.9495423,1.3460216
"HDB Block 124, TECK WHYE LANE",103.7499431,1.3798434
"HDB Block 124, YISHUN ST 11",103.831124,1.43354
"HDB Block 124A, BT MERAH VIEW",103.8236076,1.2851258
"HDB Block 124A, RIVERVALE DR",103.9018617,1.3855816
"HDB Block 124B, BT MERAH VIEW",103.8233314,1.2830717
"HDB Block 124B, RIVERVALE DR",103.9029734,1.3890374
"HDB Block 124C, RIVERVALE DR",103.9029734,1.3890374
"HDB Block 124D, RIVERVALE DR",103.9018617,1.3855816
"HDB Block 124E, RIVERVALE DR",103.9018617,1.3855816
"HDB Block 125, ALJUNIED RD",103.886567,1.3192531
"HDB Block 125, ANG MO KIO AVE 6",103.8450811,1.3714542
"HDB Block 125, BEDOK NTH RD",103.938952,1.328878
"HDB Block 125, BEDOK RESERVOIR RD",103.91006,1.3330576
"HDB Block 125, BISHAN ST 12",103.8515411,1.3470389
"HDB Block 125, BT MERAH VIEW",103.8236076,1.2851258
"HDB Block 125, BT BATOK CTRL",103.7505063,1.3476774
"HDB Block 125, BT MERAH LANE 1",103.8236076,1.2851258
"HDB Block 125, EDGEDALE PLAINS",103.91228,1.395621
"HDB Block 125, GEYLANG EAST AVE 1",103.886644,1.31773
"HDB Block 125, HOUGANG AVE 1",103.886309,1.3523989
"HDB Block 125, KIM TIAN RD",103.8276362,1.2825306
"HDB Block 125, LOR 1 TOA PAYOH",103.845538,1.338334
"HDB Block 125, MARSILING RISE",103.779419,1.4385349
"HDB Block 125, PASIR RIS ST 11",103.954384,1.36615
"HDB Block 125, PENDING RD",103.770458,1.37728
"HDB Block 125, POTONG PASIR AVE 1",103.867199,1.332062
"HDB Block 125, RIVERVALE ST",103.9029734,1.3890374
"HDB Block 125, SERANGOON NTH AVE 1",103.872153,1.366521
"HDB Block 125, SIMEI ST 1",103.9532624,1.3454024
"HDB Block 125, TAMPINES ST 11",103.9499091,1.3462017
"HDB Block 125, YISHUN ST 11",103.8303049,1.4341699
"HDB Block 125A, BT MERAH VIEW",103.8236076,1.2851258
"HDB Block 125A, KIM TIAN RD",103.828463,1.2833
"HDB Block 125A, LOR 2 TOA PAYOH",103.845727,1.3374937
"HDB Block 126, ALJUNIED RD",103.887026,1.3178095
"HDB Block 126, ANG MO KIO AVE 3",103.843547,1.371609
"HDB Block 126, BEDOK RESERVOIR RD",103.9109099,1.3327824
"HDB Block 126, BEDOK NTH ST 2",103.9390023,1.3281896
"HDB Block 126, BISHAN ST 12",103.852067,1.346162
"HDB Block 126, BT BATOK CTRL",103.7540174,1.3483821
"HDB Block 126, BT MERAH VIEW",103.8236801,1.2844392
"HDB Block 126, BT MERAH LANE 1",103.8029927,1.2850944
"HDB Block 126, CANBERRA ST",103.8349355,1.4452428
"HDB Block 126, EDGEDALE PLAINS",103.91228,1.395621
"HDB Block 126, GEYLANG EAST AVE 1",103.887026,1.3178095
"HDB Block 126, HOUGANG AVE 1",103.886309,1.3523989
"HDB Block 126, KIM TIAN RD",103.8292793,1.2823334
"HDB Block 126, LOR 1 TOA PAYOH",103.8450386,1.3379974
"HDB Block 126, MARSILING RISE",103.7798582,1.4381677
"HDB Block 126, PASIR RIS ST 11",103.955149,1.365553
"HDB Block 126, PENDING RD",103.7698172,1.3764382
"HDB Block 126, POTONG PASIR AVE 1",103.865255,1.334924
"HDB Block 126, RIVERVALE ST",103.903308,1.389888
"HDB Block 126, SERANGOON NTH AVE 1",103.871635,1.366023
"HDB Block 126, SIMEI ST 1",103.9532624,1.3454024
"HDB Block 126, TAMPINES ST 11",103.950313,1.345796
"HDB Block 126, YISHUN ST 11",103.829976,1.433598
"HDB Block 126A, BT MERAH VIEW",103.8236801,1.2844392
"HDB Block 126A, CANBERRA ST",103.8349355,1.4452428
"HDB Block 126A, EDGEDALE PLAINS",103.91228,1.395621
"HDB Block 126A, KIM TIAN RD",103.829395,1.2824952
"HDB Block 126A, RIVERVALE ST",103.902593,1.389918
"HDB Block 126B, CANBERRA ST",103.8334304,1.4457017
"HDB Block 126B, EDGEDALE PLAINS",103.912912,1.395055
"HDB Block 126B, KIM TIAN RD",103.829741,1.282663
"HDB Block 126C, CANBERRA ST",103.8327249,1.4446486
"HDB Block 126C, EDGEDALE PLAINS",103.91228,1.395621
"HDB Block 126C, KIM TIAN RD",103.829321,1.2822318
"HDB Block 126D, CANBERRA ST",103.8327249,1.4446486
"HDB Block 126D, EDGEDALE PLAINS",103.91228,1.395621
"HDB Block 127, ANG MO KIO AVE 3",103.843497,1.371244
"HDB Block 127, BEDOK NTH ST 2",103.9380158,1.3279943
"HDB Block 127, BEDOK RESERVOIR RD",103.911183,1.332867
"HDB Block 127, BISHAN ST 12",103.8514919,1.346096
"HDB Block 127, BT MERAH LANE 1",103.8032965,1.2852086
"HDB Block 127, BT BATOK WEST AVE 6",103.745974,1.35182
"HDB Block 127, GEYLANG EAST AVE 1",103.887418,1.318081
"HDB Block 127, HOUGANG AVE 1",103.885794,1.352903
"HDB Block 127, KIM TIAN RD",103.8282722,1.2809123
"HDB Block 127, LOR 1 TOA PAYOH",103.8447459,1.3381176
"HDB Block 127, MARSILING RISE",103.7791426,1.4381826
"HDB Block 127, PASIR RIS ST 11",103.955142,1.365884
"HDB Block 127, PENDING RD",103.769243,1.376536
"HDB Block 127, POTONG PASIR AVE 1",103.865448,1.335004
"HDB Block 127, PUNGGOL FIELD WALK",103.912054,1.393292
"HDB Block 127, RIVERVALE ST",103.902593,1.389918
"HDB Block 127, SERANGOON NTH AVE 1",103.871635,1.366023
"HDB Block 127, SIMEI ST 1",103.9542276,1.3465632
"HDB Block 127, TAMPINES ST 11",103.9503486,1.3452369
"HDB Block 127, YISHUN ST 11",103.830682,1.434119
"HDB Block 127A, KIM TIAN RD",103.8297426,1.281999
"HDB Block 127B, KIM TIAN RD",103.8282722,1.2809123
"HDB Block 127C, KIM TIAN RD",103.830022,1.281516
"HDB Block 127D, KIM TIAN RD",103.8298718,1.2811233
"HDB Block 128, ANG MO KIO AVE 3",103.849062,1.368423
"HDB Block 128, BEDOK RESERVOIR RD",103.911545,1.333505
"HDB Block 128, BEDOK NTH ST 2",103.9387139,1.3277742
"HDB Block 128, BISHAN ST 12",103.8503618,1.3461059
"HDB Block 128, BT MERAH VIEW",103.8233314,1.2830717
"HDB Block 128, BT BATOK WEST AVE 6",103.745587,1.351662
"HDB Block 128, CANBERRA ST",103.831135,1.433914
"HDB Block 128, GEYLANG EAST AVE 1",103.887376,1.3184425
"HDB Block 128, KIM TIAN RD",103.82885,1.281639
"HDB Block 128, LOR 1 TOA PAYOH",103.8443629,1.3379209
"HDB Block 128, LOR AH SOO",103.8861709,1.3512983
"HDB Block 128, MARSILING RISE",103.778734,1.437475
"HDB Block 128, PASIR RIS ST 11",103.95525,1.366254
"HDB Block 128, PENDING RD",103.769688,1.376086
"HDB Block 128, POTONG PASIR AVE 1",103.8662553,1.3350511
"HDB Block 128, PUNGGOL FIELD WALK",103.912458,1.393522
"HDB Block 128, RIVERVALE ST",103.902593,1.389918
"HDB Block 128, SIMEI ST 1",103.9532624,1.3454024
"HDB Block 128, YISHUN ST 11",103.831135,1.433914
"HDB Block 128A, BT MERAH VIEW",103.8233314,1.2830717
"HDB Block 128A, CANBERRA ST",103.8334304,1.4457017
"HDB Block 128A, LOR 1 TOA PAYOH",103.845538,1.338334
"HDB Block 128A, PUNGGOL FIELD WALK",103.912458,1.393522
"HDB Block 128A, RIVERVALE ST",103.902593,1.389918
"HDB Block 128B, CANBERRA ST",103.8333993,1.4487621
"HDB Block 128B, PUNGGOL FIELD WALK",103.912458,1.393522
"HDB Block 128C, CANBERRA ST",103.8341375,1.4446828
"HDB Block 128C, PUNGGOL FIELD WALK",103.912458,1.393522
"HDB Block 128D, PUNGGOL FIELD WALK",103.912458,1.393522
"HDB Block 129, ANG MO KIO AVE 3",103.8423679,1.3699809
"HDB Block 129, BEDOK NTH ST 2",103.9377111,1.3275892
"HDB Block 129, BEDOK RESERVOIR RD",103.911522,1.330042
"HDB Block 129, BISHAN ST 12",103.848597,1.3466071
"HDB Block 129, BT MERAH VIEW",103.8233314,1.2830717
"HDB Block 129, BT BATOK WEST AVE 6",103.7474766,1.3516711
"HDB Block 129, CANBERRA ST",103.8327249,1.4446486
"HDB Block 129, CLARENCE LANE",103.8143569,1.2931144
"HDB Block 129, EDGEDALE PLAINS",103.911087,1.393712
"HDB Block 129, GEYLANG EAST AVE 2",103.8881364,1.3166847
"HDB Block 129, KIM TIAN RD",103.8288692,1.2811737
"HDB Block 129, LOR AH SOO",103.887507,1.351523
"HDB Block 129, MARSILING RISE",103.7787306,1.4378746
"HDB Block 129, PASIR RIS ST 11",103.955766,1.366562
"HDB Block 129, PENDING RD",103.7704605,1.3759963
"HDB Block 129, POTONG PASIR AVE 1",103.86548,1.334775
"HDB Block 129, RIVERVALE ST",103.902593,1.389918
"HDB Block 129, SIMEI ST 1",103.954339,1.346352
"HDB Block 129, YISHUN ST 11",103.8317199,1.4339024
"HDB Block 129A, BT MERAH VIEW",103.8233314,1.2830717
"HDB Block 129A, CLARENCE LANE",103.8143569,1.2931144
"HDB Block 129A, CANBERRA ST",103.8327249,1.4446486
"HDB Block 129A, KIM TIAN RD",103.8288692,1.2811737
"HDB Block 129B, CANBERRA ST",103.8327249,1.4446486
"HDB Block 129C, CANBERRA ST",103.8327249,1.4446486
"HDB Block 13, BEDOK STH RD",103.9366749,1.320537
"HDB Block 13, CANTONMENT CL",103.840444,1.2746789
"HDB Block 13, DOVER CL EAST",103.785977,1.305474
"HDB Block 13, EUNOS CRES",103.9034219,1.3227158
"HDB Block 13, FARRER PK RD",103.8511912,1.3116499
"HDB Block 13, GHIM MOH RD",103.7891615,1.3097655
"HDB Block 13, HAIG RD",103.8959431,1.3137651
"HDB Block 13, HOLLAND DR",103.7925117,1.3099663
"HDB Block 13, JLN BT MERAH",103.8073254,1.2876736
"HDB Block 13, JOO SENG RD",103.8802043,1.3346768
"HDB Block 13, LOR 7 TOA PAYOH",103.859036,1.3363
"HDB Block 13, MARINE TER",103.9156199,1.3041085
"HDB Block 13, MARSILING LANE",103.7720515,1.4476034
"HDB Block 13, MERPATI RD",103.8838307,1.3277922
"HDB Block 13, NTH BRIDGE RD",103.863166,1.304266
"HDB Block 13, OLD AIRPORT RD",103.845226,1.4261415
"HDB Block 13, ST. GEORGE'S RD",103.8627455,1.323239
"HDB Block 13, TECK WHYE LANE",103.7557136,1.3789639
"HDB Block 13, TELOK BLANGAH CRES",103.820668,1.27829
"HDB Block 13, TOH YI DR",103.774497,1.338532
"HDB Block 13, UPP BOON KENG RD",103.8706909,1.3152368
"HDB Block 13, YORK HILL",103.8380641,1.2864104
"HDB Block 13A, BEDOK STH RD",103.9342678,1.3196205
"HDB Block 13A, GHIM MOH RD",103.787588,1.310688
"HDB Block 13A, MARSILING LANE",103.7782831,1.4419798
"HDB Block 13A, UPP BOON KENG RD",103.872805,1.314313
"HDB Block 130, ANG MO KIO AVE 3",103.8412371,1.3715325
"HDB Block 130, BEDOK RESERVOIR RD",103.912262,1.333485
"HDB Block 130, BEDOK NTH ST 2",103.9367282,1.3271114
"HDB Block 130, BISHAN ST 12",103.850961,1.345935
"HDB Block 130, BT MERAH VIEW",103.8233314,1.2830717
"HDB Block 130, BT BATOK WEST AVE 6",103.7449246,1.3451103
"HDB Block 130, CASHEW RD",103.7713372,1.3740548
"HDB Block 130, CANBERRA CRES",103.8315682,1.444648
"HDB Block 130, CHOA CHU KANG AVE 1",103.750204,1.3813
"HDB Block 130, CLARENCE LANE",103.814736,1.292795
"HDB Block 130, EDGEDALE PLAINS",103.91228,1.395621
"HDB Block 130, GEYLANG EAST AVE 1",103.885941,1.316467
"HDB Block 130, JURONG GATEWAY RD",103.7387031,1.3362469
"HDB Block 130, KIM TIAN RD",103.8291229,1.2803407
"HDB Block 130, LOR 1 TOA PAYOH",103.8431942,1.3374913
"HDB Block 130, LOR AH SOO",103.8861709,1.3512983
"HDB Block 130, MARSILING RISE",103.7790483,1.4381997
"HDB Block 130, PASIR RIS ST 11",103.9568608,1.3652669
"HDB Block 130, POTONG PASIR AVE 1",103.865501,1.3344259
"HDB Block 130, RIVERVALE ST",103.9029734,1.3890374
"HDB Block 130, SIMEI ST 1",103.9532624,1.3454024
"HDB Block 130, YISHUN ST 11",103.831124,1.43354
"HDB Block 130A, ANG MO KIO ST 12",103.8412371,1.3715325
"HDB Block 130A, CANBERRA CRES",103.8315682,1.444648
"HDB Block 130A, LOR 1 TOA PAYOH",103.8431942,1.3374913
"HDB Block 130B, ANG MO KIO ST 12",103.841859,1.376759
"HDB Block 130B, CANBERRA CRES",103.8323162,1.446054
"HDB Block 130B, LOR 1 TOA PAYOH",103.8431942,1.3374913
"HDB Block 130C, LOR 1 TOA PAYOH",103.845538,1.338334
"HDB Block 131, ANG MO KIO AVE 3",103.8422543,1.3709682
"HDB Block 131, BEDOK NTH AVE 3",103.9357439,1.3269324
"HDB Block 131, BEDOK RESERVOIR RD",103.911649,1.333168
"HDB Block 131, BISHAN ST 12",103.8510185,1.3455718
"HDB Block 131, BT BATOK WEST AVE 6",103.7460919,1.3506856
"HDB Block 131, CANBERRA CRES",103.8311349,1.4438228
"HDB Block 131, CASHEW RD",103.768871,1.373998
"HDB Block 131, CHOA CHU KANG AVE 1",103.7508327,1.3815156
"HDB Block 131, CLARENCE LANE",103.8152011,1.2923454
"HDB Block 131, EDGEDALE PLAINS",103.9158962,1.4034847
"HDB Block 131, GEYLANG EAST AVE 1",103.886855,1.31677
"HDB Block 131, JLN BT MERAH",103.8281749,1.2802345
"HDB Block 131, JURONG GATEWAY RD",103.7389258,1.3426284
"HDB Block 131, LOR 1 TOA PAYOH",103.8432589,1.3379696
"HDB Block 131, LOR AH SOO",103.887066,1.351508
"HDB Block 131, MARSILING RISE",103.778403,1.438494
"HDB Block 131, PASIR RIS ST 11",103.9564531,1.3657584
"HDB Block 131, POTONG PASIR AVE 1",103.865301,1.334328
"HDB Block 131, RIVERVALE ST",103.903308,1.389888
"HDB Block 131, SIMEI ST 1",103.9538437,1.3454611
"HDB Block 131, YISHUN ST 11",103.831219,1.433214
"HDB Block 131A, CANBERRA CRES",103.8311349,1.4438228
"HDB Block 131A, KIM TIAN RD",103.8282722,1.2809123
"HDB Block 131A, LOR 1 TOA PAYOH",103.8433062,1.3383901
"HDB Block 131B, CANBERRA CRES",103.8311349,1.4438228
"HDB Block 131B, KIM TIAN RD",103.8282722,1.2809123
"HDB Block 131B, LOR 1 TOA PAYOH",103.8432589,1.3379696
"HDB Block 131C, CANBERRA CRES",103.8323162,1.446054
"HDB Block 131C, KIM TIAN RD",103.8282722,1.2809123
"HDB Block 131C, LOR 1 TOA PAYOH",103.845538,1.338334
"HDB Block 132, ANG MO KIO AVE 3",103.8412371,1.3715325
"HDB Block 132, BEDOK RESERVOIR RD",103.9114677,1.3327329
"HDB Block 132, BEDOK NTH ST 2",103.9363122,1.327682
"HDB Block 132, BISHAN ST 12",103.8515315,1.3456212
"HDB Block 132, BT BATOK WEST AVE 6",103.74572,1.350387
"HDB Block 132, CASHEW RD",103.7707777,1.37416
"HDB Block 132, CANBERRA VIEW",103.8296255,1.4459975
"HDB Block 132, CHOA CHU KANG AVE 1",103.7506851,1.3811509
"HDB Block 132, CLARENCE LANE",103.814911,1.292262
"HDB Block 132, EDGEDALE PLAINS",103.91228,1.395621
"HDB Block 132, GEYLANG EAST AVE 1",103.885941,1.316467
"HDB Block 132, JLN BT MERAH",103.8283736,1.2789023
"HDB Block 132, JURONG GATEWAY RD",103.737331,1.3356265
"HDB Block 132, LOR AH SOO",103.8861265,1.350881
"HDB Block 132, MARSILING RISE",103.777968,1.4382839
"HDB Block 132, PASIR RIS ST 11",103.956171,1.366152
"HDB Block 132, POTONG PASIR AVE 1",103.865547,1.334194
"HDB Block 132, RIVERVALE ST",103.903308,1.389888
"HDB Block 132, SIMEI ST 1",103.9559117,1.3467941
"HDB Block 132, YISHUN ST 11",103.831298,1.432856
"HDB Block 132A, ANG MO KIO ST 12",103.842291,1.371737
"HDB Block 132A, CANBERRA CRES",103.8308886,1.4459789
"HDB Block 132B, CANBERRA VIEW",103.8296255,1.4459975
"HDB Block 132C, CANBERRA VIEW",103.8296255,1.4459975
"HDB Block 133, ANG MO KIO AVE 3",103.847775,1.366677
"HDB Block 133, BEDOK NTH AVE 3",103.9357439,1.3269324
"HDB Block 133, BEDOK RESERVOIR RD",103.911764,1.332419
"HDB Block 133, BISHAN ST 12",103.851772,1.3455919
"HDB Block 133, BT BATOK WEST AVE 6",103.744932,1.351485
"HDB Block 133, CASHEW RD",103.769783,1.374221
"HDB Block 133, CLARENCE LANE",103.8146244,1.2922784
"HDB Block 133, EDGEDALE PLAINS",103.9158962,1.4034847
"HDB Block 133, GEYLANG EAST AVE 1",103.8856631,1.316523
"HDB Block 133, JLN BT MERAH",103.8272867,1.2796393
"HDB Block 133, JURONG GATEWAY RD",103.7347827,1.3445771
"HDB Block 133, LOR AH SOO",103.887311,1.350522
"HDB Block 133, MARSILING RISE",103.77809,1.437529
"HDB Block 133, PASIR RIS ST 11",103.95611,1.365496
"HDB Block 133, POTONG PASIR AVE 1",103.865817,1.334368
"HDB Block 133, RIVERVALE ST",103.903308,1.389888
"HDB Block 133, SIMEI ST 1",103.9556061,1.347368
"HDB Block 133, TECK WHYE LANE",103.751148,1.380732
"HDB Block 133, YISHUN ST 11",103.830752,1.4326127
"HDB Block 133A, CASHEW RD",103.769783,1.374221
"HDB Block 133A, RIVERVALE ST",103.9029734,1.3890374
"HDB Block 134, ANG MO KIO AVE 3",103.8420229,1.3720528
"HDB Block 134, BEDOK NTH ST 2",103.9362535,1.3282974
"HDB Block 134, BEDOK RESERVOIR RD",103.9126355,1.3328331
"HDB Block 134, BISHAN ST 12",103.8522175,1.3456316
"HDB Block 134, BT BATOK WEST AVE 6",103.7445288,1.3516218
"HDB Block 134, EDGEDALE PLAINS",103.911087,1.393712
"HDB Block 134, GEYLANG EAST AVE 1",103.885941,1.316467
"HDB Block 134, JLN BT MERAH",103.8265119,1.278962
"HDB Block 134, JURONG GATEWAY RD",103.737331,1.3356265
"HDB Block 134, LOR AH SOO",103.8864136,1.3505211
"HDB Block 134, MARSILING RD",103.7776626,1.4367682
"HDB Block 134, PASIR RIS ST 11",103.9565722,1.3651391
"HDB Block 134, PETIR RD",103.7693309,1.3744209
"HDB Block 134, POTONG PASIR AVE 3",103.8658537,1.3350637
"HDB Block 134, RIVERVALE ST",103.9029734,1.3890374
"HDB Block 134, SIMEI ST 1",103.9559802,1.3483428
"HDB Block 134, TECK WHYE LANE",103.750971,1.38031
"HDB Block 134, YISHUN ST 11",103.83125,1.43244
"HDB Block 134A, JLN BT MERAH",103.827166,1.2793969
"HDB Block 135, BEDOK NTH ST 2",103.9364452,1.3287
"HDB Block 135, BEDOK RESERVOIR RD",103.9124448,1.3332292
"HDB Block 135, BISHAN ST 12",103.8513034,1.3451089
"HDB Block 135, BT BATOK WEST AVE 6",103.744688,1.351187
"HDB Block 135, CASHEW RD",103.768871,1.373998
"HDB Block 135, EDGEDALE PLAINS",103.91228,1.395621
"HDB Block 135, JLN BT MERAH",103.827031,1.278559
"HDB Block 135, JURONG GATEWAY RD",103.7399374,1.3337931
"HDB Block 135, LOR AH SOO",103.886835,1.349788
"HDB Block 135, MARSILING RD",103.7777758,1.4375566
"HDB Block 135, PASIR RIS ST 11",103.959325,1.364729
"HDB Block 135, POTONG PASIR AVE 3",103.86679,1.334654
"HDB Block 135, RIVERVALE ST",103.9029734,1.3890374
"HDB Block 135, SERANGOON NTH AVE 2",103.874966,1.367372
"HDB Block 135, SIMEI ST 1",103.9570775,1.3479839
"HDB Block 135, TECK WHYE LANE",103.751478,1.380446
"HDB Block 135, YISHUN ST 11",103.83174,1.4323189
"HDB Block 135A, BISHAN ST 12",103.8513034,1.3451089
"HDB Block 135A, PASIR RIS ST 11",103.955766,1.366562
"HDB Block 135A, RIVERVALE ST",103.9029734,1.3890374
"HDB Block 135A, TECK WHYE LANE",103.7520977,1.3804765
"HDB Block 136, BEDOK RESERVOIR RD",103.913481,1.33352
"HDB Block 136, BEDOK NTH AVE 3",103.9352821,1.3277728
"HDB Block 136, BISHAN ST 12",103.851754,1.344152
"HDB Block 136, BT BATOK WEST AVE 6",103.744777,1.350836
"HDB Block 136, EDGEDALE PLAINS",103.91228,1.395621
"HDB Block 136, JLN BT MERAH",103.827399,1.278289
"HDB Block 136, LOR AH SOO",103.8865391,1.3498007
"HDB Block 136, MARSILING RD",103.777659,1.438646
"HDB Block 136, PASIR RIS ST 11",103.9576874,1.3646688
"HDB Block 136, PETIR RD",103.768753,1.37462
"HDB Block 136, POTONG PASIR AVE 3",103.8666004,1.3340619
"HDB Block 136, RIVERVALE ST",103.9029734,1.3890374
"HDB Block 136, SERANGOON NTH AVE 2",103.87482,1.368069
"HDB Block 136, SIMEI ST 1",103.9564055,1.3479462
"HDB Block 136, TAMPINES ST 11",103.9457629,1.3467994
"HDB Block 136, TECK WHYE LANE",103.7516909,1.379939
"HDB Block 136, YISHUN RING RD",103.831238,1.432048
"HDB Block 136A, TAMPINES ST 11",103.9457629,1.3467994
"HDB Block 137, BEDOK NTH AVE 3",103.9359025,1.3288968
"HDB Block 137, BEDOK RESERVOIR RD",103.9131124,1.3338897
"HDB Block 137, BISHAN ST 12",103.851784,1.3444799
"HDB Block 137, BT BATOK WEST AVE 6",103.744956,1.350608
"HDB Block 137, EDGEDALE PLAINS",103.91228,1.395621
"HDB Block 137, JLN BT MERAH",103.826763,1.278286
"HDB Block 137, LOR AH SOO",103.886687,1.34908
"HDB Block 137, MARSILING RD",103.777094,1.438424
"HDB Block 137, PASIR RIS ST 11",103.957358,1.3650389
"HDB Block 137, PETIR RD",103.769255,1.375127
"HDB Block 137, POTONG PASIR AVE 3",103.865877,1.333803
"HDB Block 137, RIVERVALE ST",103.9046124,1.3890997
"HDB Block 137, SERANGOON NTH AVE 2",103.875199,1.367844
"HDB Block 137, SIMEI ST 1",103.956241,1.347581
"HDB Block 137, TAMPINES ST 11",103.9457629,1.3467994
"HDB Block 137, TECK WHYE LANE",103.7522857,1.3799844
"HDB Block 137, YISHUN RING RD",103.8303013,1.4311708
"HDB Block 137A, PASIR RIS ST 11",103.957358,1.3650389
"HDB Block 137A, TAMPINES ST 11",103.9457629,1.3467994
"HDB Block 137B, TAMPINES ST 11",103.9457629,1.3467994
"HDB Block 137C, TAMPINES ST 11",103.9457629,1.3467994
"HDB Block 137D, TAMPINES ST 11",103.9457629,1.3467994
"HDB Block 138, BEDOK RESERVOIR RD",103.9131609,1.3343194
"HDB Block 138, BEDOK NTH ST 2",103.9361441,1.3292662
"HDB Block 138, BISHAN ST 12",103.8513034,1.3451089
"HDB Block 138, BT BATOK WEST AVE 6",103.744567,1.350508
"HDB Block 138, EDGEDALE PLAINS",103.91228,1.395621
"HDB Block 138, JLN BT MERAH",103.826228,1.27844
"HDB Block 138, LOR AH SOO",103.8843035,1.3515762
"HDB Block 138, LOR 1A TOA PAYOH",103.8446832,1.3366381
"HDB Block 138, MARSILING RD",103.777232,1.438073
"HDB Block 138, PASIR RIS ST 11",103.9597347,1.3633115
"HDB Block 138, PETIR RD",103.769994,1.3748419
"HDB Block 138, POTONG PASIR AVE 3",103.865419,1.33357
"HDB Block 138, RIVERVALE ST",103.9029734,1.3890374
"HDB Block 138, SERANGOON NTH AVE 2",103.8686743,1.3532501
"HDB Block 138, SIMEI ST 1",103.956888,1.3472329
"HDB Block 138, TAMPINES ST 11",103.9456244,1.3454615
"HDB Block 138, TECK WHYE LANE",103.7524291,1.3803934
"HDB Block 138, YISHUN RING RD",103.830393,1.431681
"HDB Block 138, YUAN CHING RD",103.723436,1.327773
"HDB Block 138A, LOR 1A TOA PAYOH",103.8446832,1.3366381
"HDB Block 138A, YUAN CHING RD",103.7245901,1.3280482
"HDB Block 138B, LOR 1A TOA PAYOH",103.8446832,1.3366381
"HDB Block 138B, YUAN CHING RD",103.723436,1.327773
"HDB Block 138C, LOR 1A TOA PAYOH",103.8446832,1.3366381
"HDB Block 138C, YUAN CHING RD",103.723436,1.327773
"HDB Block 138D, YUAN CHING RD",103.723436,1.327773
"HDB Block 139, BEDOK RESERVOIR RD",103.9136449,1.3345458
"HDB Block 139, BEDOK NTH AVE 3",103.9357738,1.3294733
"HDB Block 139, BISHAN ST 12",103.852778,1.345334
"HDB Block 139, BT BATOK WEST AVE 6",103.7442191,1.3512666
"HDB Block 139, JLN BT MERAH",103.8265119,1.278962
"HDB Block 139, LOR 1A TOA PAYOH",103.8446832,1.3366381
"HDB Block 139, LOR AH SOO",103.884255,1.3522332
"HDB Block 139, MARSILING RD",103.777248,1.437717
"HDB Block 139, PASIR RIS ST 11",103.959355,1.363475
"HDB Block 139, PETIR RD",103.7692564,1.3755097
"HDB Block 139, POTONG PASIR AVE 3",103.8661623,1.3332792
"HDB Block 139, RIVERVALE ST",103.903308,1.389888
"HDB Block 139, SERANGOON NTH AVE 2",103.8754811,1.368783
"HDB Block 139, SIMEI ST 1",103.9564053,1.3467333
"HDB Block 139, TAMPINES ST 11",103.9445036,1.3468471
"HDB Block 139, TECK WHYE LANE",103.75254,1.380225
"HDB Block 139, YISHUN RING RD",103.8404924,1.4313023
"HDB Block 139, YUAN CHING RD",103.7237718,1.3280315
"HDB Block 139A, LOR 1A TOA PAYOH",103.8446832,1.3366381
"HDB Block 139B, LOR 1A TOA PAYOH",103.8446832,1.3366381
"HDB Block 14, BEACH RD",103.8635289,1.3036627
"HDB Block 14, BEDOK STH AVE 2",103.9361049,1.3213505
"HDB Block 14, DOVER CL EAST",103.785254,1.304594
"HDB Block 14, EUNOS CRES",103.9033423,1.3232174
"HDB Block 14, FARRER PK RD",103.8513126,1.3112675
"HDB Block 14, GHIM MOH RD",103.787215,1.311269
"HDB Block 14, HAIG RD",103.8959431,1.3137651
"HDB Block 14, JLN BT MERAH",103.8077003,1.2879417
"HDB Block 14, JOO SENG RD",103.8802043,1.3346768
"HDB Block 14, KG ARANG RD",103.8842269,1.3001581
"HDB Block 14, LOR 7 TOA PAYOH",103.857148,1.334919
"HDB Block 14, MARINE TER",103.9156199,1.3041085
"HDB Block 14, MERPATI RD",103.8830452,1.3278224
"HDB Block 14, ST. GEORGE'S RD",103.861971,1.323861
"HDB Block 14, TAMAN HO SWEE",103.830859,1.28813
"HDB Block 14, TECK WHYE LANE",103.7555174,1.3785221
"HDB Block 14, TELOK BLANGAH CRES",103.820205,1.277545
"HDB Block 14, TOH YI DR",103.772626,1.339053
"HDB Block 14, UPP BOON KENG RD",103.8706909,1.3152368
"HDB Block 14A, FARRER PK RD",103.8516568,1.3121066
"HDB Block 14A, GHIM MOH RD",103.788785,1.309925
"HDB Block 14A, KG ARANG RD",103.8842269,1.3001581
"HDB Block 14A, LOR 7 TOA PAYOH",103.857088,1.3349217
"HDB Block 14A, TELOK BLANGAH CRES",103.8214807,1.2780786
"HDB Block 14A, UPP BOON KENG RD",103.8706909,1.3152368
"HDB Block 14B, LOR 7 TOA PAYOH",103.858847,1.335966
"HDB Block 140, BEDOK RESERVOIR RD",103.913689,1.3350746
"HDB Block 140, BEDOK NTH ST 2",103.9348944,1.3298231
"HDB Block 140, BISHAN ST 12",103.852862,1.344884
"HDB Block 140, BT BATOK ST 11",103.7437373,1.3506566
"HDB Block 140, CORPORATION DR",103.723396,1.3268617
"HDB Block 140, JLN BT MERAH",103.8294611,1.2782138
"HDB Block 140, LOR AH SOO",103.883728,1.352583
"HDB Block 140, MARSILING RD",103.776703,1.437669
"HDB Block 140, PASIR RIS ST 11",103.9591086,1.3640027
"HDB Block 140, PETIR RD",103.7686881,1.3751214
"HDB Block 140, POTONG PASIR AVE 3",103.866748,1.333785
"HDB Block 140, RIVERVALE ST",103.9029734,1.3890374
"HDB Block 140, SERANGOON NTH AVE 2",103.8686743,1.3532501
"HDB Block 140, TAMPINES ST 12",103.9437748,1.3476724
"HDB Block 140, TECK WHYE LANE",103.7530346,1.3800004
"HDB Block 140, YISHUN RING RD",103.8303013,1.4311708
"HDB Block 140A, CORPORATION DR",103.7230479,1.3272591
"HDB Block 140B, CORPORATION DR",103.723396,1.3268617
"HDB Block 140C, CORPORATION DR",103.7239516,1.3271832
"HDB Block 140D, CORPORATION DR",103.723396,1.3268617
"HDB Block 141, BEDOK RESERVOIR RD",103.913354,1.335317
"HDB Block 141, BISHAN ST 12",103.8533738,1.3451189
"HDB Block 141, BT BATOK ST 11",103.743307,1.350289
"HDB Block 141, CORPORATION DR",103.723396,1.3268617
"HDB Block 141, JLN BT MERAH",103.8284384,1.2772805
"HDB Block 141, LOR 2 TOA PAYOH",103.8457712,1.3358839
"HDB Block 141, LOR AH SOO",103.8838824,1.3530886
"HDB Block 141, MARSILING RD",103.776948,1.437353
"HDB Block 141, PASIR RIS ST 11",103.9586963,1.3641399
"HDB Block 141, PETIR RD",103.7681428,1.3758779
"HDB Block 141, POTONG PASIR AVE 3",103.867366,1.334039
"HDB Block 141, RIVERVALE ST",103.9029734,1.3890374
"HDB Block 141, SERANGOON NTH AVE 2",103.874966,1.367372
"HDB Block 141, SIMEI ST 2",103.9549392,1.3456943
"HDB Block 141, TAMPINES ST 12",103.9447138,1.3483369
"HDB Block 141, TECK WHYE LANE",103.7526085,1.3803795
"HDB Block 141, YISHUN RING RD",103.8298125,1.4309512
"HDB Block 141A, LOR 2 TOA PAYOH",103.845876,1.334101
"HDB Block 141A, SERANGOON NTH AVE 1",103.8727501,1.3682021
"HDB Block 142, BEDOK RESERVOIR RD",103.9131529,1.3356417
"HDB Block 142, BISHAN ST 12",103.853555,1.3454839
"HDB Block 142, BT BATOK ST 11",103.742937,1.349844
"HDB Block 142, JLN BT MERAH",103.8280984,1.2770656
"HDB Block 142, LOR AH SOO",103.8827774,1.3529813
"HDB Block 142, LOR 2 TOA PAYOH",103.8454883,1.3357723
"HDB Block 142, MARSILING RD",103.776959,1.436994
"HDB Block 142, PASIR RIS ST 11",103.9586963,1.3641399
"HDB Block 142, PETIR RD",103.7676869,1.376571
"HDB Block 142, POTONG PASIR AVE 3",103.8661623,1.3332792
"HDB Block 142, RIVERVALE CRES",103.9078968,1.3908912
"HDB Block 142, SERANGOON NTH AVE 1",103.873946,1.367403
"HDB Block 142, SIMEI ST 2",103.955133,1.345435
"HDB Block 142, TAMPINES ST 12",103.9452782,1.3486675
"HDB Block 142, TECK WHYE LANE",103.7520428,1.3808043
"HDB Block 142, YISHUN RING RD",103.830436,1.430861
"HDB Block 142A, LOR 2 TOA PAYOH",103.8454883,1.3357723
"HDB Block 142A, PASIR RIS ST 11",103.960155,1.363026
"HDB Block 142A, RIVERVALE DR",103.9018617,1.3855816
"HDB Block 142B, PASIR RIS ST 11",103.9586963,1.3641399
"HDB Block 143, BEDOK RESERVOIR RD",103.912741,1.335035
"HDB Block 143, BISHAN ST 12",103.8528076,1.345653
"HDB Block 143, BT BATOK ST 11",103.7439326,1.3502602
"HDB Block 143, JLN BT MERAH",103.8299068,1.2778077
"HDB Block 143, LOR 2 TOA PAYOH",103.8437725,1.3356579
"HDB Block 143, LOR AH SOO",103.8861709,1.3512983
"HDB Block 143, MARSILING RD",103.7767724,1.4367311
"HDB Block 143, MEI LING ST",103.8045269,1.293484
"HDB Block 143, PASIR RIS ST 11",103.9601573,1.3625038
"HDB Block 143, PETIR RD",103.7675192,1.376266
"HDB Block 143, POTONG PASIR AVE 2",103.8654545,1.3326209
"HDB Block 143, RIVERVALE DR",103.905739,1.390138
"HDB Block 143, SERANGOON NTH AVE 1",103.872894,1.36739
"HDB Block 143, TAMPINES ST 12",103.9454321,1.3496402
"HDB Block 143, TECK WHYE LANE",103.753062,1.380557
"HDB Block 143, YISHUN RING RD",103.8309249,1.431033
"HDB Block 143A, RIVERVALE DR",103.9018617,1.3855816
"HDB Block 144, BEDOK RESERVOIR RD",103.9125235,1.3349482
"HDB Block 144, BISHAN ST 12",103.8533738,1.3459243
"HDB Block 144, BT BATOK WEST AVE 6",103.744214,1.349969
"HDB Block 144, JLN BT MERAH",103.8299047,1.2773343
"HDB Block 144, LOR 2 TOA PAYOH",103.8441957,1.3353006
"HDB Block 144, LOR AH SOO",103.8829364,1.3517501
"HDB Block 144, PASIR RIS ST 11",103.960403,1.362467
"HDB Block 144, PETIR RD",103.7678581,1.3756801
"HDB Block 144, POTONG PASIR AVE 2",103.8654478,1.3326132
"HDB Block 144, RIVERVALE DR",103.9018617,1.3855816
"HDB Block 144, SERANGOON NTH AVE 1",103.8730536,1.3678308
"HDB Block 144, SIMEI ST 2",103.9558679,1.3455199
"HDB Block 144, TAMPINES ST 12",103.94372,1.348476
"HDB Block 144, TECK WHYE LANE",103.752544,1.3808339
"HDB Block 144, WOODLANDS ST 13",103.7724794,1.4360109
"HDB Block 144, YISHUN ST 11",103.831135,1.433914
"HDB Block 145, BEDOK RESERVOIR RD",103.911999,1.334296
"HDB Block 145, BISHAN ST 11",103.854356,1.3448739
"HDB Block 145, BT BATOK ST 11",103.743615,1.349959
"HDB Block 145, JLN BT MERAH",103.8305058,1.2771938
"HDB Block 145, LOR 2 TOA PAYOH",103.845095,1.33317
"HDB Block 145, LOR AH SOO",103.88343,1.351603
"HDB Block 145, MEI LING ST",103.8043346,1.2948598
"HDB Block 145, PASIR RIS ST 11",103.9608182,1.3632046
"HDB Block 145, PETIR RD",103.7669198,1.3760401
"HDB Block 145, POTONG PASIR AVE 2",103.8659981,1.332421
"HDB Block 145, RIVERVALE DR",103.9018617,1.3855816
"HDB Block 145, SERANGOON NTH AVE 1",103.8727501,1.3682021
"HDB Block 145, SIMEI ST 2",103.9558937,1.344584
"HDB Block 145, TAMPINES ST 12",103.9442568,1.3487456
"HDB Block 145, TECK WHYE AVE",103.7524617,1.3812863
"HDB Block 145, WOODLANDS ST 13",103.773162,1.436102
"HDB Block 145, YISHUN ST 11",103.831742,1.430934
"HDB Block 145A, BEDOK RESERVOIR RD",103.911999,1.334296
"HDB Block 146, BEDOK RESERVOIR RD",103.911889,1.3346039
"HDB Block 146, BISHAN ST 11",103.854356,1.3448739
"HDB Block 146, BT BATOK WEST AVE 6",103.7443647,1.3496181
"HDB Block 146, GANGSA RD",103.7660668,1.37565
"HDB Block 146, JLN BT MERAH",103.8308269,1.2779006
"HDB Block 146, LOR 2 TOA PAYOH",103.8466001,1.3345569
"HDB Block 146, MEI LING ST",103.804405,1.293924
"HDB Block 146, PASIR RIS ST 11",103.960155,1.363026
"HDB Block 146, POTONG PASIR AVE 1",103.867199,1.332062
"HDB Block 146, RIVERVALE DR",103.9029734,1.3890374
"HDB Block 146, SERANGOON NTH AVE 1",103.8727501,1.3682021
"HDB Block 146, SIMEI ST 2",103.9558937,1.344584
"HDB Block 146, TAMPINES AVE 5",103.942383,1.348188
"HDB Block 146, TECK WHYE AVE",103.7525062,1.3814037
"HDB Block 146, WOODLANDS ST 13",103.7739579,1.436103
"HDB Block 146, YISHUN ST 11",103.8323209,1.4311339
"HDB Block 146A, LOR 2 TOA PAYOH",103.8466001,1.3345569
"HDB Block 146A, PASIR RIS ST 11",103.960155,1.363026
"HDB Block 146A, RIVERVALE CRES",103.9075525,1.3904591
"HDB Block 146A, TECK WHYE AVE",103.7525062,1.3814037
"HDB Block 147, BEDOK RESERVOIR RD",103.911809,1.335353
"HDB Block 147, BISHAN ST 11",103.85511,1.343902
"HDB Block 147, BT BATOK WEST AVE 6",103.7435689,1.349475
"HDB Block 147, GANGSA RD",103.7655733,1.3761567
"HDB Block 147, LOR 2 TOA PAYOH",103.845876,1.334101
"HDB Block 147, MEI LING ST",103.8048922,1.2943291
"HDB Block 147, PASIR RIS ST 13",103.9621954,1.3628235
"HDB Block 147, POTONG PASIR AVE 1",103.8680482,1.3319046
"HDB Block 147, RIVERVALE CRES",103.9078968,1.3908912
"HDB Block 147, SERANGOON NTH AVE 1",103.8723993,1.3684829
"HDB Block 147, SILAT AVE",103.8310653,1.2772254
"HDB Block 147, SIMEI ST 2",103.9559362,1.3455295
"HDB Block 147, TAMPINES AVE 5",103.9420873,1.3491509
"HDB Block 147, WOODLANDS ST 13",103.774738,1.436022
"HDB Block 147, YISHUN ST 11",103.831777,1.431326
"HDB Block 147A, LOR 2 TOA PAYOH",103.845876,1.334101
"HDB Block 147B, LOR 2 TOA PAYOH",103.845876,1.334101
"HDB Block 148, BEDOK RESERVOIR RD",103.911809,1.335353
"HDB Block 148, BISHAN ST 11",103.854356,1.3448739
"HDB Block 148, BT BATOK WEST AVE 6",103.743855,1.349302
"HDB Block 148, GANGSA RD",103.7661486,1.3759825
"HDB Block 148, LOR 1 TOA PAYOH",103.8435329,1.334671
"HDB Block 148, MEI LING ST",103.804444,1.2944139
"HDB Block 148, PASIR RIS ST 13",103.962068,1.362189
"HDB Block 148, POTONG PASIR AVE 1",103.867766,1.332627
"HDB Block 148, RIVERVALE CRES",103.9052468,1.3911315
"HDB Block 148, SERANGOON NTH AVE 1",103.873619,1.368627
"HDB Block 148, SIMEI ST 1",103.9532624,1.3454024
"HDB Block 148, SILAT AVE",103.830673,1.276929
"HDB Block 148, TAMPINES AVE 5",103.942037,1.350186
"HDB Block 148, WOODLANDS ST 13",103.773914,1.435794
"HDB Block 148, YISHUN ST 11",103.832921,1.432803
"HDB Block 148A, MEI LING ST",103.8026578,1.293787
"HDB Block 148A, RIVERVALE CRES",103.9083283,1.3896155
"HDB Block 149, BEDOK RESERVOIR RD",103.912761,1.335805
"HDB Block 149, BISHAN ST 11",103.85511,1.343902
"HDB Block 149, BT BATOK WEST AVE 6",103.744319,1.349267
"HDB Block 149, LOR 1 TOA PAYOH",103.8439985,1.3338558
"HDB Block 149, MEI LING ST",103.8043346,1.2948598
"HDB Block 149, PASIR RIS ST 13",103.9627165,1.3623625
"HDB Block 149, PETIR RD",103.7666609,1.3767815
"HDB Block 149, RIVERVALE CRES",103.9078968,1.3908912
"HDB Block 149, SERANGOON NTH AVE 1",103.8735357,1.3667637
"HDB Block 149, SIMEI ST 1",103.955974,1.345956
"HDB Block 149, SILAT AVE",103.8314654,1.2774842
"HDB Block 149, TAMPINES ST 12",103.9426352,1.3513959
"HDB Block 149, WOODLANDS ST 13",103.772935,1.435792
"HDB Block 149, YISHUN ST 11",103.8326129,1.431728
"HDB Block 149A, PASIR RIS ST 13",103.9627259,1.3625467
"HDB Block 149A, SERANGOON NTH AVE 1",103.8727501,1.3682021
"HDB Block 149B, PASIR RIS ST 13",103.9627165,1.3623625
"HDB Block 15, BEACH RD",103.8635289,1.3036627
"HDB Block 15, BEDOK STH RD",103.9354478,1.3208353
"HDB Block 15, EUNOS CRES",103.9033789,1.3239001
"HDB Block 15, FARRER PK RD",103.851721,1.3111663
"HDB Block 15, GHIM MOH RD",103.787215,1.311269
"HDB Block 15, HOUGANG AVE 3",103.891747,1.362725
"HDB Block 15, JOO SENG RD",103.8802043,1.3346768
"HDB Block 15, LOR 7 TOA PAYOH",103.858847,1.335966
"HDB Block 15, MARINE TER",103.9138399,1.304926
"HDB Block 15, MARSILING LANE",103.7782831,1.4419798
"HDB Block 15, ST. GEORGE'S RD",103.8616847,1.3239781
"HDB Block 15, TECK WHYE LANE",103.754329,1.379069
"HDB Block 15, TELOK BLANGAH CRES",103.8214807,1.2780786
"HDB Block 15, TOH YI DR",103.7719515,1.3390423
"HDB Block 15, UPP BOON KENG RD",103.8740906,1.3187822
"HDB Block 15A, MARINE TER",103.9156199,1.3041085
"HDB Block 150, ANG MO KIO AVE 5",103.841859,1.376759
"HDB Block 150, BEDOK RESERVOIR RD",103.9125469,1.3360999
"HDB Block 150, BISHAN ST 11",103.855269,1.344518
"HDB Block 150, BT BATOK ST 11",103.7437338,1.3487227
"HDB Block 150, CORPORATION DR",103.723396,1.3268617
"HDB Block 150, JLN TECK WHYE",103.756488,1.3782333
"HDB Block 150, LOR 1 TOA PAYOH",103.8444418,1.333959
"HDB Block 150, MEI LING ST",103.8043346,1.2948598
"HDB Block 150, PASIR RIS ST 13",103.9627259,1.3625467
"HDB Block 150, PETIR RD",103.7668661,1.3771006
"HDB Block 150, RIVERVALE CRES",103.9075525,1.3904591
"HDB Block 150, SERANGOON NTH AVE 2",103.8750848,1.3694562
"HDB Block 150, SIMEI ST 1",103.957147,1.346176
"HDB Block 150, SILAT AVE",103.831453,1.2771309
"HDB Block 150, TAMPINES ST 12",103.9435996,1.350924
"HDB Block 150, WOODLANDS ST 13",103.7736819,1.435307
"HDB Block 150, YISHUN ST 11",103.833624,1.430863
"HDB Block 150A, BISHAN ST 11",103.855269,1.344518
"HDB Block 150A, CORPORATION DR",103.722392,1.3267143
"HDB Block 150A, MEI CHIN RD",103.803643,1.2953618
"HDB Block 151, ANG MO KIO AVE 5",103.8410488,1.376683
"HDB Block 151, BEDOK RESERVOIR RD",103.9116563,1.3357294
"HDB Block 151, BISHAN ST 11",103.855018,1.345469
"HDB Block 151, BT BATOK ST 11",103.744243,1.348739
"HDB Block 151, JLN TECK WHYE",103.7572705,1.3784093
"HDB Block 151, MEI LING ST",103.8043346,1.2948598
"HDB Block 151, PASIR RIS ST 13",103.962568,1.362864
"HDB Block 151, PETIR RD",103.766183,1.3772883
"HDB Block 151, RIVERVALE CRES",103.9075525,1.3904591
"HDB Block 151, SERANGOON NTH AVE 2",103.874966,1.367372
"HDB Block 151, SIMEI ST 1",103.9532624,1.3454024
"HDB Block 151, TAMPINES ST 12",103.943742,1.3514
"HDB Block 151, WOODLANDS ST 13",103.777975,1.434385
"HDB Block 151, YISHUN ST 11",103.834144,1.430876
"HDB Block 151, YUNG HO RD",103.721355,1.326781
"HDB Block 151A, BISHAN ST 11",103.855018,1.345469
"HDB Block 151A, JLN TECK WHYE",103.756353,1.378643
"HDB Block 151A, MEI LING ST",103.802962,1.2948275
"HDB Block 151A, SERANGOON NTH AVE 2",103.8686743,1.3532501
"HDB Block 152, ANG MO KIO AVE 5",103.840063,1.376656
"HDB Block 152, BISHAN ST 11",103.8543852,1.345151
"HDB Block 152, BT BATOK ST 11",103.744243,1.348739
"HDB Block 152, GANGSA RD",103.7668465,1.3795722
"HDB Block 152, JLN TECK WHYE",103.758062,1.378835
"HDB Block 152, LOR 2 TOA PAYOH",103.845876,1.334101
"HDB Block 152, MEI LING ST",103.8026578,1.293787
"HDB Block 152, PASIR RIS ST 13",103.962196,1.363735
"HDB Block 152, RIVERVALE CRES",103.9075525,1.3904591
"HDB Block 152, SERANGOON NTH AVE 1",103.8726189,1.3693626
"HDB Block 152, WOODLANDS ST 13",103.774345,1.435065
"HDB Block 152, YISHUN ST 11",103.8346121,1.4309123
"HDB Block 152, YUNG HO RD",103.7203906,1.3275646
"HDB Block 152A, BISHAN ST 11",103.8543852,1.345151
"HDB Block 152A, GANGSA RD",103.765612,1.375509
"HDB Block 152A, SERANGOON NTH AVE 1",103.8726189,1.3693626
"HDB Block 152B, BISHAN ST 11",103.8543852,1.345151
"HDB Block 152B, SERANGOON NTH AVE 1",103.8727501,1.3682021
"HDB Block 153, ANG MO KIO AVE 5",103.841774,1.376353
"HDB Block 153, BISHAN ST 13",103.8554428,1.3461031
"HDB Block 153, BT BATOK ST 11",103.744289,1.347569
"HDB Block 153, GANGSA RD",103.765451,1.374975
"HDB Block 153, LOR 2 TOA PAYOH",103.8456739,1.3335964
"HDB Block 153, MEI LING ST",103.803042,1.293822
"HDB Block 153, PASIR RIS ST 13",103.962794,1.363737
"HDB Block 153, RIVERVALE CRES",103.9075525,1.3904591
"HDB Block 153, SERANGOON NTH AVE 1",103.871889,1.369817
"HDB Block 153, SIMEI ST 1",103.957533,1.3452033
"HDB Block 153, WOODLANDS ST 13",103.774887,1.43516
"HDB Block 153, YISHUN ST 11",103.834142,1.431226
"HDB Block 153, YUNG HO RD",103.7210882,1.3274972
"HDB Block 153A, LOR 1 TOA PAYOH",103.845125,1.33368
"HDB Block 153A, MEI LING ST",103.8026578,1.293787
"HDB Block 153A, SERANGOON NTH AVE 1",103.871889,1.369817
"HDB Block 154, ANG MO KIO AVE 5",103.841054,1.37628
"HDB Block 154, BISHAN ST 13",103.8550118,1.3466566
"HDB Block 154, BT BATOK ST 11",103.743965,1.347706
"HDB Block 154, GANGSA RD",103.765038,1.37489
"HDB Block 154, HOUGANG ST 11",103.8801,1.352269
"HDB Block 154, JLN TECK WHYE",103.7577457,1.3796711
"HDB Block 154, LOR 2 TOA PAYOH",103.846058,1.333424
"HDB Block 154, MEI LING ST",103.803602,1.293603
"HDB Block 154, PASIR RIS ST 13",103.963243,1.363293
"HDB Block 154, RIVERVALE CRES",103.9075525,1.3904591
"HDB Block 154, SERANGOON NTH AVE 1",103.8736162,1.3701506
"HDB Block 154, SIMEI ST 1",103.957024,1.344831
"HDB Block 154, WOODLANDS ST 13",103.7753861,1.4346622
"HDB Block 154, YISHUN ST 11",103.834096,1.431599
"HDB Block 154, YUNG HO RD",103.7217217,1.3275668
"HDB Block 154A, BT BATOK WEST AVE 8",103.7376345,1.3564456
"HDB Block 154A, JLN TECK WHYE",103.756472,1.380225
"HDB Block 155, ANG MO KIO AVE 4",103.839952,1.3759189
"HDB Block 155, BEDOK STH AVE 3",103.946107,1.318507
"HDB Block 155, BISHAN ST 13",103.855829,1.346233
"HDB Block 155, BT BATOK ST 11",103.7424108,1.3481923
"HDB Block 155, GANGSA RD",103.7650228,1.3753458
"HDB Block 155, HOUGANG ST 11",103.8800505,1.3525822
"HDB Block 155, JLN TECK WHYE",103.757114,1.378765
"HDB Block 155, LOR 1 TOA PAYOH",103.8456896,1.333059
"HDB Block 155, MEI LING ST",103.8047589,1.2930538
"HDB Block 155, PASIR RIS ST 13",103.963478,1.3634402
"HDB Block 155, RIVERVALE CRES",103.9075525,1.3904591
"HDB Block 155, SIMEI RD",103.958392,1.344708
"HDB Block 155, WOODLANDS ST 13",103.7746,1.434773
"HDB Block 155, YISHUN ST 11",103.83404,1.431975
"HDB Block 155, YUNG LOH RD",103.7225251,1.3278555
"HDB Block 155A, PASIR RIS ST 13",103.963478,1.3634402
"HDB Block 155A, YUNG LOH RD",103.7217574,1.3281568
"HDB Block 156, ANG MO KIO AVE 4",103.839844,1.37552
"HDB Block 156, BEDOK STH AVE 3",103.945449,1.3183149
"HDB Block 156, BISHAN ST 13",103.856613,1.345382
"HDB Block 156, BT BATOK ST 11",103.7481454,1.3585209
"HDB Block 156, HOUGANG ST 11",103.879619,1.35267
"HDB Block 156, JLN TECK WHYE",103.75668,1.3788253
"HDB Block 156, LOR 1 TOA PAYOH",103.845095,1.33317
"HDB Block 156, MEI LING ST",103.802744,1.292684
"HDB Block 156, PASIR RIS ST 13",103.9630076,1.3640079
"HDB Block 156, RIVERVALE CRES",103.9078968,1.3908912
"HDB Block 156, SIMEI RD",103.959356,1.34466
"HDB Block 156, TAMPINES ST 12",103.944979,1.351602
"HDB Block 156, WOODLANDS ST 13",103.774323,1.434253
"HDB Block 156, YISHUN ST 11",103.833604,1.4319215
"HDB Block 156, YUNG LOH RD",103.7217574,1.3281568
"HDB Block 156A, LOR 1 TOA PAYOH",103.845095,1.33317
"HDB Block 156A, MEI LING ST",103.8041764,1.2926623
"HDB Block 156A, RIVERVALE CRES",103.9075525,1.3904591
"HDB Block 156B, RIVERVALE CRES",103.9075525,1.3904591
"HDB Block 157, ANG MO KIO AVE 4",103.840116,1.381182
"HDB Block 157, BEDOK STH AVE 3",103.9458836,1.3187807
"HDB Block 157, BISHAN ST 13",103.856719,1.345896
"HDB Block 157, BT BATOK ST 11",103.743512,1.348387
"HDB Block 157, HOUGANG ST 11",103.879672,1.3530279
"HDB Block 157, JLN TECK WHYE",103.7569494,1.3794027
"HDB Block 157, LOR 1 TOA PAYOH",103.8451879,1.332274
"HDB Block 157, MEI LING ST",103.8035762,1.2933239
"HDB Block 157, PASIR RIS ST 13",103.9626116,1.3642836
"HDB Block 157, SERANGOON NTH AVE 1",103.8697639,1.3710753
"HDB Block 157, SIMEI RD",103.959356,1.34466
"HDB Block 157, TAMPINES ST 12",103.944846,1.351138
"HDB Block 157, WOODLANDS ST 13",103.774821,1.434425
"HDB Block 157, YISHUN ST 11",103.834008,1.432295
"HDB Block 157, YUNG LOH RD",103.7217331,1.3287602
"HDB Block 157A, MEI LING ST",103.8035762,1.2933239
"HDB Block 157A, RIVERVALE CRES",103.9078968,1.3908912
"HDB Block 157A, SERANGOON NTH AVE 1",103.8697639,1.3710753
"HDB Block 157B, RIVERVALE CRES",103.9078968,1.3908912
"HDB Block 157B, SERANGOON NTH AVE 1",103.8697639,1.3710753
"HDB Block 157C, RIVERVALE CRES",103.907752,1.387868
"HDB Block 157D, RIVERVALE CRES",103.9075525,1.3904591
"HDB Block 158, ANG MO KIO AVE 4",103.8369444,1.3758333
"HDB Block 158, BEDOK STH AVE 3",103.9450622,1.318839
"HDB Block 158, BISHAN ST 13",103.8561627,1.3464338
"HDB Block 158, BT BATOK ST 11",103.743143,1.348769
"HDB Block 158, HOUGANG ST 11",103.880123,1.35178
"HDB Block 158, JLN TECK WHYE",103.7571368,1.3799455
"HDB Block 158, LOR 1 TOA PAYOH",103.845095,1.33317
"HDB Block 158, MEI LING ST",103.802744,1.292684
"HDB Block 158, PASIR RIS ST 13",103.9626116,1.3642836
"HDB Block 158, SIMEI RD",103.959547,1.34428
"HDB Block 158, TAMPINES ST 12",103.945846,1.3514219
"HDB Block 158, WOODLANDS ST 13",103.774832,1.43405
"HDB Block 158, YISHUN ST 11",103.8345414,1.4325587
"HDB Block 158, YUNG LOH RD",103.7224517,1.3288051
"HDB Block 158A, JLN TECK WHYE",103.7571368,1.3799455
"HDB Block 158A, PASIR RIS ST 13",103.9626116,1.3642836
"HDB Block 158A, RIVERVALE CRES",103.9083283,1.3896155
"HDB Block 158B, RIVERVALE CRES",103.9078968,1.3908912
"HDB Block 158C, RIVERVALE CRES",103.9083283,1.3896155
"HDB Block 158D, RIVERVALE CRES",103.907337,1.3885019
"HDB Block 159, ANG MO KIO AVE 4",103.840116,1.381182
"HDB Block 159, BEDOK STH AVE 3",103.945563,1.319058
"HDB Block 159, BISHAN ST 13",103.855829,1.346233
"HDB Block 159, BT BATOK ST 11",103.742681,1.348643
"HDB Block 159, HOUGANG ST 11",103.879335,1.351492
"HDB Block 159, JLN TECK WHYE",103.756472,1.380225
"HDB Block 159, LOR 1 TOA PAYOH",103.845095,1.33317
"HDB Block 159, MEI CHIN RD",103.803643,1.2953618
"HDB Block 159, PASIR RIS ST 13",103.961462,1.3636569
"HDB Block 159, RIVERVALE CRES",103.9078968,1.3908912
"HDB Block 159, SIMEI RD",103.9597032,1.344807
"HDB Block 159, TAMPINES ST 12",103.945987,1.3510222
"HDB Block 159, WOODLANDS ST 13",103.774704,1.433713
"HDB Block 159, YISHUN ST 11",103.833722,1.432806
"HDB Block 159, YUNG PING RD",103.7225646,1.3294482
"HDB Block 159A, HOUGANG ST 11",103.879619,1.35267
"HDB Block 159A, RIVERVALE CRES",103.9084406,1.3900388
"HDB Block 16, BEDOK STH RD",103.942822,1.320438
"HDB Block 16, CANTONMENT CL",103.840266,1.2738844
"HDB Block 16, COMPASSVALE LINK",103.89396,1.383236
"HDB Block 16, DAKOTA CRES",103.8848299,1.306164
"HDB Block 16, EUNOS CRES",103.9044726,1.3230624
"HDB Block 16, GHIM MOH RD",103.787215,1.311269
"HDB Block 16, HOUGANG AVE 3",103.8910544,1.3628905
"HDB Block 16, JLN TENTERAM",103.8593498,1.327143
"HDB Block 16, JOO SENG RD",103.8802043,1.3346768
"HDB Block 16, MARSILING LANE",103.7782831,1.4419798
"HDB Block 16, MARINE TER",103.9151761,1.305795
"HDB Block 16, ST. GEORGE'S RD",103.8623424,1.3244258
"HDB Block 16, TAMAN HO SWEE",103.830859,1.28813
"HDB Block 16, TECK WHYE LANE",103.7557136,1.3789639
"HDB Block 16, TELOK BLANGAH CRES",103.8214807,1.2780786
"HDB Block 16, TOH YI DR",103.77267,1.339378
"HDB Block 16, UPP BOON KENG RD",103.8740906,1.3187822
"HDB Block 16A, GHIM MOH RD",103.787215,1.311269
"HDB Block 16A, MARINE TER",103.9140818,1.3043084
"HDB Block 16A, TELOK BLANGAH CRES",103.820932,1.277492
"HDB Block 160, ANG MO KIO AVE 4",103.8369444,1.3758333
"HDB Block 160, BEDOK STH AVE 3",103.945241,1.319285
"HDB Block 160, BISHAN ST 13",103.856381,1.347033
"HDB Block 160, BT BATOK ST 11",103.741997,1.348843
"HDB Block 160, HOUGANG ST 11",103.879036,1.352046
"HDB Block 160, JLN TECK WHYE",103.756362,1.380816
"HDB Block 160, LOR 1 TOA PAYOH",103.844989,1.330945
"HDB Block 160, MEI LING ST",103.8043346,1.2948598
"HDB Block 160, PASIR RIS ST 13",103.9624696,1.3640641
"HDB Block 160, PUNGGOL CTRL",103.915619,1.395286
"HDB Block 160, RIVERVALE CRES",103.9084406,1.3900388
"HDB Block 160, SIMEI RD",103.959619,1.345186
"HDB Block 160, TAMPINES ST 12",103.94498,1.350787
"HDB Block 160, WOODLANDS ST 13",103.77471,1.433348
"HDB Block 160, YISHUN ST 11",103.8332755,1.4324601
"HDB Block 160, YUNG PING RD",103.721403,1.329196
"HDB Block 160A, JLN TECK WHYE",103.756472,1.380225
"HDB Block 160A, PUNGGOL CTRL",103.915619,1.395286
"HDB Block 160B, PUNGGOL CTRL",103.915619,1.395286
"HDB Block 161, ANG MO KIO AVE 4",103.840116,1.381182
"HDB Block 161, BEDOK STH AVE 3",103.945785,1.31959
"HDB Block 161, BISHAN ST 13",103.8562383,1.3476133
"HDB Block 161, BT MERAH CTRL",103.8158828,1.2832438
"HDB Block 161, BT BATOK ST 11",103.7421891,1.3484368
"HDB Block 161, HOUGANG ST 11",103.87866,1.352572
"HDB Block 161, LOR 1 TOA PAYOH",103.844911,1.330465
"HDB Block 161, MEI LING ST",103.803602,1.291646
"HDB Block 161, PASIR RIS ST 13",103.961734,1.363662
"HDB Block 161, RIVERVALE CRES",103.9084406,1.3900388
"HDB Block 161, SIMEI RD",103.9599561,1.3453484
"HDB Block 161, TAMPINES ST 12",103.945943,1.350003
"HDB Block 161, WOODLANDS ST 13",103.7736759,1.4333309
"HDB Block 161, YISHUN ST 11",103.832921,1.432803
"HDB Block 161, YUNG PING RD",103.721603,1.32973
"HDB Block 161A, LOR 1 TOA PAYOH",103.845095,1.33317
"HDB Block 161A, MEI LING ST",103.8026578,1.293787
"HDB Block 161A, PUNGGOL CTRL",103.915339,1.395808
"HDB Block 161B, PUNGGOL CTRL",103.915339,1.395808
"HDB Block 162, ANG MO KIO AVE 4",103.8376799,1.3751917
"HDB Block 162, BEDOK STH RD",103.9460777,1.3196312
"HDB Block 162, BISHAN ST 13",103.8559153,1.3475544
"HDB Block 162, BT BATOK ST 11",103.7421117,1.3481165
"HDB Block 162, BT MERAH CTRL",103.8168261,1.2831697
"HDB Block 162, JLN TECK WHYE",103.757711,1.380841
"HDB Block 162, MEI LING ST",103.802744,1.292684
"HDB Block 162, PUNGGOL CTRL",103.914213,1.396553
"HDB Block 162, RIVERVALE CRES",103.9078968,1.3908912
"HDB Block 162, SIMEI RD",103.9597312,1.3457191
"HDB Block 162, TAMPINES ST 12",103.947052,1.349888
"HDB Block 162, WOODLANDS ST 13",103.773233,1.432986
"HDB Block 162, YISHUN ST 11",103.8324081,1.4330627
"HDB Block 162, YUNG PING RD",103.721861,1.329744
"HDB Block 162A, PUNGGOL CTRL",103.914213,1.396553
"HDB Block 162A, RIVERVALE CRES",103.9075525,1.3904591
